time,gePosition_m_X,gePosition_m_Y,gePosition_m_Z,eiPosition_m_X,eiPosition_m_Y,eiPosition_m_Z,eiVelocity_m_s_X,eiVelocity_m_s_Y,eiVelocity_m_s_Z,eiAccel_m_s2_X,eiAccel_m_s2_Y,eiAccel_m_s2_Z,semiMajorAxis_m,gast_rad,eulerAngle_rad_Roll,eulerAngle_rad_Pitch,eulerAngle_rad_Yaw,eulerAngleWrtEi_rad_Roll,eulerAngleWrtEi_rad_Pitch,eulerAngleWrtEi_rad_Yaw,bodyAngularRateWrtEi_rad_s_Roll,bodyAngularRateWrtEi_rad_s_Pitch,bodyAngularRateWrtEi_rad_s_Yaw,altitudeMsl_m,airDensity_kg_m3,ambientTemperature_dgK,eiGravitation_m_s2_X,eiGravitation_m_s2_Y,eiGravitation_m_s2_Z
0.0,-1436381.4663574744,4185811.709981752,5163944.671561651,-4315967.74,960356.1999999998,5167269.529999999,129.09103699999832,-7491.513854999997,1452.5156539999987,5.469414063074255,-1.2170115407862068,-6.548227207882758,6759053.075789562,1.0233194459853856,5.666859310090004E-17,-0.20245819323134254,-4.604323189448128E-17,-2.471593905564226,-0.03718896475784017,-1.428993135204368,4.658681209898652E-20,-0.0011222300308759384,4.0657581468206416E-20,434989.54081172694,1.6159166507157113E-12,978.0522572877376,5.469414083491855,-1.2170122767063871,-6.548227058940051
60.0,-1794950.0344969616,3943126.030598559,5239239.6201552255,-4298383.755025365,509016.7268747276,5242568.014172501,456.873451144535,-7547.421689705862,1056.4130518621794,5.452579191516536,-0.6456963843986556,-6.650294535055667,6759052.996946576,1.027694715234372,-2.6213072022379976E-12,-0.2024360598371528,-6.654944989749403E-11,-2.472045194408246,0.015605902028426027,-1.3871941836888853,4.658681209898652E-20,-0.0011222300308759384,4.0657581468206416E-20,433093.8649428709,1.7268595290084826E-12,985.105072600109,5.452579242188246,-0.6456971264231312,-6.650294426693959
120.0,-2147547.168215367,3685627.2170862295,5290617.598832874,-4261177.841949672,55353.97389193495,5293934.334402744,782.9101070597496,-7568.915625341404,655.0733637208098,5.411225971151403,-0.07029269912560125,-6.722713000102258,6759052.917985167,1.0320699844833425,-8.978347540629818E-12,-0.20236718956051544,-1.1125768728958303E-10,-2.4702868220479717,0.06837346634951039,-1.3453262663514858,4.658681209898652E-20,-0.0011222300308759384,4.0657581468206416E-20,430905.28034507186,1.8594904261152624E-12,992.8730188261345,5.411226051903617,-0.07029344390455682,-6.722712932882445
180.0,-2492684.2431546287,3414408.911282974,5317817.997570004,-4204498.850530143,-398561.351067511,5321107.917541735,1105.7315910636194,-7555.824707512511,250.2894328374908,5.345427273517834,0.5067152982506247,-6.765038377959291,6759052.838931762,1.0364452537322815,-1.771185509326208E-11,-0.20224802849745277,-1.3399191351474848E-10,-2.4662973075153496,0.12102070149999372,-1.3031548243083342,4.658681209898652E-20,-0.0011222300308759384,4.0657581468206416E-20,428429.87800425565,2.0164174711431017E-12,1001.3073019200688,5.3454273840449655,0.5067145540899841,-6.765038352263941
240.0,-2828892.476274717,3130615.6541529493,5320688.437499822,-4128583.6040629926,-850652.7735198556,5323936.489897369,1423.875871438609,-7508.127967728333,-156.122790656256,5.255356556393666,1.082813679956035,-6.776945291581027,6759052.759778793,1.0408205229812044,-2.7395413174152353E-11,-0.20207523734140453,-1.3481677375427477E-10,-2.460027840101518,0.17345209177142892,-1.2604406632143343,4.658681209898652E-20,-0.0011222300308759384,4.0657581468206416E-20,425676.5923527411,2.2003120170639536E-12,1010.3226919553774,5.255356696258467,1.0828129397958537,-6.776945307611608
300.0,-3154729.0166463037,2835438.438182994,5299185.941310828,-4033756.274495357,-1298847.0999485394,5302377.247490666,1735.8943787568037,-7425.955951575202,-562.3314916621594,5.141289328454594,1.6554673745105462,-6.7582308805924525,6759052.680519673,1.0451957922300796,-3.659328696191693E-11,-0.20184570701097387,-1.1400014956568476E-10,-2.451401532058155,0.22556763079897746,-1.21693635378477,4.658681209898652E-20,-0.0011222300308759384,4.0657581468206416E-20,422657.21568193793,2.4138524576082207E-12,1019.8018837398512,5.141289497088929,1.6554666417284378,-6.758230938367133
360.0,-3468783.042288728,2530110.080724709,5253377.66293249,-3920427.3902330715,-1741083.541338363,5256497.585317018,2040.3581663937696,-7309.591717590548,-966.4964458480491,5.003604350387019,2.222129244566092,-6.708818251728928,6759052.601148298,1.049571061478955,-4.371763979821388E-11,-0.20155657354895165,-7.19762787799166E-11,-2.440312300130583,0.2772606847082967,-1.1723826141699925,4.658681209898652E-20,-0.0011222300308759384,4.0657581468206416E-20,419386.37395504705,2.659703664978777E-12,1029.6061051601068,5.003604547093119,2.2221285225210377,-6.7088183510810016
420.0,-3769681.840636503,2215900.42907847,5183441.1641083695,-3789092.472333674,-2175322.879990191,5186475.373207065,2335.8641340946747,-7159.4712758636515,-1366.776674542261,4.842784527854797,2.78024968590812,-6.628759657813593,6759052.52165833,1.0539463307277828,-4.7275722192573834E-11,-0.20120523221877595,-9.374774979949933E-12,-2.4266234488935607,0.3284156602672077,-1.1265047086281983,4.658681209898652E-20,-0.0011222300308759384,4.0657581468206416E-20,415881.46313260176,2.940532039138688E-12,1039.589134181904,4.84278475180701,2.780248977926163,-6.6287597983905595
480.0,-4056096.848735788,1894111.4090961528,5089664.226434873,-3640330.2958838227,-2599556.6450595483,5092598.766861635,2621.0412947032464,-6976.183434992368,-1761.338280780155,4.659417449294655,3.3272867494485268,-6.518239347113993,6759052.442044651,1.0583215999766105,-4.5908678453734246E-11,-0.20078935072052434,7.307738317437742E-11,-2.410166082393471,0.37890541913182324,-1.079008951413574,4.658681209898652E-20,-0.0011222300308759384,4.0657581468206416E-20,412162.5456233145,3.2590368123361726E-12,1049.610715754396,4.659417699541715,3.3272860588083,-6.518239528377311
540.0,-4326749.627818892,1566071.9301529475,4972444.188626824,-3474800.7746401373,-3011816.2603818025,4975265.5438190065,2894.5570612887996,-6760.469026204064,-2148.3624448737683,4.454195519848819,3.8607167782300578,-6.377576020726744,6759052.362302508,1.0626968692254064,-3.8152257774981144E-11,-0.20030688144889436,1.741420809210232E-10,-2.390737553668885,0.4285883837546494,-1.0295794903450843,4.658681209898652E-20,-0.0011222300308759384,4.0657581468206416E-20,408252.20700419584,3.617967976957024E-12,1059.5461503369913,4.454195795316658,3.8607161081481842,-6.377576241952322
600.0,-4580417.74549474,1233132.6605093123,4832286.800187517,-3293242.4684657124,-3410182.126296813,4834981.955530343,3155.1235289560095,-6513.219474245758,-2526.0535540298497,4.227915641910366,4.378045540716411,-6.20722483229574,6759052.282428023,1.0670721384741706,-2.277949964689132E-11,-0.19975607271224258,2.9248582126007807E-10,-2.3681002878841557,0.47730529221938167,-0.9778756738827268,4.658681209898652E-20,-0.0011222300308759384,4.0657581468206416E-20,404175.37372744223,4.0201041712126936E-12,1069.2908202926692,4.227915941405481,4.378044894332825,-6.207225092575176
660.0,-4815940.537469011,896660.6883258895,4669804.584303756,-3096469.714727232,-3792792.5954021784,4672361.088363162,3401.5037226489135,-6235.474686114865,-2892.647436524458,3.981478392885474,4.876819830093222,-6.007778862036638,6759052.202417572,1.0714474077229348,1.8394647809174028E-12,-0.19913547883363375,4.2677032652472203E-10,-2.3419815006359914,0.5248755839273315,-0.9235304947795272,4.658681209898652E-20,-0.0011222300308759384,4.0657581468206416E-20,399959.0931314555,4.4681752676402535E-12,1078.7603162276537,3.981478715098872,4.876819210456454,-6.007779160279263
720.0,-5032224.719490867,558034.0849104046,4485714.704680323,-2885369.386628029,-4157852.800489921,4488120.7282480635,3632.5177793262797,-5928.4202308827225,-3246.4196668185864,3.7158866519260925,5.354639487097837,-5.77996999584462,6759052.12226863,1.075822676973096,3.671713013406151E-11,-0.19844396905204972,5.756776560089321E-10,-2.3120745961866445,0.5710934443673489,-0.8661508699167281,4.658681209898652E-20,-0.0011222300308759384,4.0657581468206416E-20,395632.27770721476,4.9647264322767445E-12,1087.8877945346187,3.715886995437836,5.354638897150348,-5.779970330780374
780.0,-5228249.819159333,218636.38807552768,4280836.33316677,-2660897.2834333414,-4503643.291401462,4283080.725823725,3847.049030053107,-5593.383786788668,-3585.6939038419264,3.4322436296437977,5.809169791229197,-5.524669140346272,6759052.0419791285,1.0801979462217968,8.288458069822593E-11,-0.19768073514686693,7.375405581940374E-10,-2.2780433838384093,0.615723617559181,-0.8053208725177817,4.658681209898652E-20,-0.0011222300308759384,4.0657581468206416E-20,391225.41622366407,5.511928372255003E-12,1096.6202242981021,3.4322439929281505,5.809169233792811,-5.524669510529451
840.0,-5403073.396312767,-120148.9749907045,4056087.5174195017,-2424074.1596944653,-4828528.436212823,4058159.861327068,4044.049944889448,-5231.830835479809,-3908.850220560526,3.13175025823344,6.238154152263702,-5.242885706227508,6759051.961547691,1.0845732154704657,1.4143781981424443E-10,-0.19684529770634668,9.106183280635538E-10,-2.2395306890722204,0.6584972253796945,-0.740609474167974,4.658681209898652E-20,-0.0011222300308759384,4.0657581468206416E-20,386770.25498458114,6.1113421788448225E-12,1104.9146988531281,3.1317506396646375,6.238153630025234,-5.242886110041406
900.0,-5555836.020080035,-456944.30481217307,3812481.5504730507,-2175981.402878661,-5130964.541084819,3814372.2111079944,4222.547901036861,-4845.359587743259,-4214.333378964724,2.815701904055271,6.639427021080082,-4.9357662951399215,6759051.880973761,1.0889484847191346,2.1332944333600296E-10,-0.19593751096732479,1.0930850118265785E-9,-2.196173409612028,0.6991080320292795,-0.6715848301085134,4.658681209898652E-20,-0.0011222300308759384,4.0657581468206416E-20,382299.4531549656,6.763648755818599E-12,1112.7354203576967,2.8157023019139076,6.639426536577248,-4.935766730802399
960.0,-5685765.9702003775,-790383.2645477518,3551122.8469578163,-1917756.3712489703,-5409507.642327074,3552823.020513481,4381.650732593965,-4435.695130320437,-4500.661000861463,2.4854843705586704,7.010926926143017,-4.604592530027702,6759051.800257532,1.0933237539677718,2.9960292641680626E-10,-0.19495756615487622,1.2828180247416485E-9,-2.1476264376971796,0.7372098731360949,-0.5978375145808231,4.658681209898652E-20,-0.0011222300308759384,4.0657581468206416E-20,377846.21674464626,7.468354443851991E-12,1120.0515369774193,2.485484783038707,7.010926481750702,-4.604592995597701
1020.0,-5792183.630087509,-1119116.5094766328,3273202.3337821164,-1650587.4063911375,-5662820.923777509,3274704.0909682475,4520.552018551068,-4004.682789376887,-4766.431581420136,2.1425691664648707,7.350709529901738,-4.250777974871479,6759051.719400312,1.0976990232163775,4.0061285270723973E-10,-0.1939059932582467,1.4777682657348687E-9,-2.0935978557393606,0.7724163273709495,-0.5190151007713463,4.658681209898652E-20,-0.0011222300308759384,4.0657581468206416E-20,373443.9164539981,8.223487214506258E-12,1126.8357656629787,2.142569591681253,7.350709127818761,-4.250778468256488
1080.0,-5874505.539250063,-1441817.2865115078,2979992.3663700507,-1375708.537427121,-5889681.712526836,2981288.6923550228,4638.536064389772,-3554.2807128881013,-5010.332289409092,1.78850802232597,7.656960588150749,-3.875864097643441,6759051.63840351,1.1020742924649671,5.168139892381362E-10,-0.19278366118501258,1.6758173733973482E-9,-2.033896939957247,0.8043040940336778,-0.4348696089350727,4.658681209898652E-20,-0.0011222300308759384,4.0657581468206416E-20,369125.695142185,9.02530177649296E-12,1133.063627321355,1.7885084583228428,7.656960230387203,-3.875864616607915
1140.0,-5932248.073168317,-1757186.9781094636,2672841.1849859087,-1094393.8966578855,-6088988.006376032,2673926.015238709,4734.982531911662,-3086.5516815267442,-5231.146495558895,1.4249266478530165,7.9280086853785265,-3.48151523965726,6759051.557269948,1.1064495617135248,6.48556922046143E-10,-0.19159177624176885,1.8748447698836807E-9,-1.9684941526999837,0.8324218222327848,-0.3453169937497679,4.658681209898652E-20,-0.0011222300308759384,4.0657581468206416E-20,364924.0711626017,9.868016468017195E-12,1138.7130970108874,1.424927092612508,7.9280083737438085,-3.481515781831994
1200.0,-5965030.719557317,-2063960.5639843505,2353166.929247414,-807951.8691084833,-6259764.487216753,2354035.181052501,4809.370671769401,-2603.654165517168,-5427.76096860219,1.0535177326683411,8.16233761064608,-3.0695125654493314,6759051.476002838,1.110824830962067,7.959441411072772E-10,-0.1903318789005243,2.0726251173112063E-9,-1.8975879558911621,0.8563060762491734,-0.2505034948146101,4.658681209898652E-20,-0.0011222300308759384,4.0657581468206416E-20,360870.54418109223,1.0743608827433694E-11,1143.7644833689535,1.0535181841198862,8.16233734673774,-3.0695131283417614
1260.0,-5972578.921159412,-2360911.9732380644,2022451.2325942307,-517719.00116835855,-6401167.975826389,2023098.8320303173,4861.283113660543,-2107.832653261007,-5599.172677352105,0.676033204218632,8.358598231876467,-2.6417469796906663,6759051.394606362,1.115200100210593,9.5904699192649E-10,-0.18900583881819472,2.2667706107245164E-9,-1.8216671353379268,0.875505392693743,-0.1508675324626657,4.658681209898652E-20,-0.0011222300308759384,4.0657581468206416E-20,356995.2103473777,1.164169880938271E-11,1148.2003664897836,0.6760336602487945,8.358598017069967,-2.6417475606960723
1320.0,-5954726.456800991,-2646859.298931943,1682232.4221913603,-225053.6961910396,-6512492.285373282,1682656.3263852214,4890.4091703174145,-1601.4072862112437,-5744.495136773895,0.294275768327556,8.515619721920599,-2.2002110112782507,6759051.313085271,1.1195753694590873,1.137762839297181E-9,-0.18761584809055262,2.454954786949599E-9,-1.741551137545755,0.8896117212821428,-0.04717964371912847,4.658681209898652E-20,-0.0011222300308759384,4.0657581468206416E-20,353326.39379097166,1.2549546240519133E-11,1152.005393710139,0.29427622679030024,8.515619557360106,-2.2002116076918163
1380.0,-5911417.334434565,-2920669.846756887,1334098.353457156,68670.27250444696,-6593172.433263658,1334296.56794575,4896.547613320042,-1086.7628433464943,-5862.964236450541,-0.08991022995465126,8.63241998764933,-1.7469896794623034,6759051.23144473,1.123950638707566,1.331748245764392E-9,-0.18616441273079287,2.634922427954641E-9,-1.6583883691202068,0.8982960218289323,0.05945959770671923,4.658681209898652E-20,-0.0011222300308759384,4.0657581468206416E-20,349890.30135189014,1.3452205834012967E-11,1155.1664053004622,-0.08990977122729464,8.632419874239652,-1.746990288491981
1440.0,-5842707.172262635,-3181264.9893469755,979678.9120656413,362070.398344091,-6642788.173829719,979650.5031240055,4879.608881388908,-566.3371275206025,-5953.9434911974295,-0.47464857516410014,8.708215153838795,-1.2842503723974672,6759051.1496911505,1.1283259079560126,1.5404912007374422E-9,-0.18465434237841677,2.804372332612919E-9,-1.5735978370238188,0.9013421412667296,0.167678304848736,4.658681209898652E-20,-0.0011222300308759384,4.0657581468206416E-20,346710.7072164377,1.4332878332856927E-11,1157.6732804874125,-0.4746481183510413,8.708215092238543,-1.2842509911775832
1500.0,-5748764.046799635,-3427624.7979396963,620638.2198193483,653762.1927726591,-6661066.817759939,620383.3216378158,4839.616685187669,-42.60881477091583,-6016.928655882672,-0.8580415175412144,8.74242795694564,-0.8142317845584031,6759051.067831121,1.1327011772044275,1.7632912702714688E-9,-0.1830887382571319,2.960929320440699E-9,-1.4887544881284087,0.8986716537957294,0.2759482912658581,4.658681209898652E-20,-0.0011222300308759384,4.0657581468206416E-20,343808.6737029584,1.5173434981943326E-11,1159.5194677024022,-0.8580410648210536,8.74242794756172,-0.8142324101639241
1560.0,-5629868.7898565335,-3658792.4235395505,258666.58417210143,942366.0139027918,-6647885.308096422,258186.40079417604,4776.708976768969,481.9151638101863,-6051.551649785353,-1.2381806021235187,8.734694910116152,-0.33923197571448477,6759050.98587168,1.1370764464528427,1.9993368599392687E-9,-0.18147097941485127,3.1025369266507346E-9,-1.405438464485857,0.8903533889484055,0.3827361639045078,4.658681209898652E-20,-0.0011222300308759384,4.0657581468206416E-20,341202.3138359015,1.5955099510569498E-11,1160.702167070496,-1.2381801556631162,8.73469495309967,-0.3392326051758576
1620.0,-5486414.7199039,-3873878.200497235,-104527.76566389106,1226513.933580545,-6603271.527044124,-105230.96370227882,4691.138256599777,1004.7126299776185,-6057.583740069669,-1.6131579051507166,8.684872110000418,0.1384043697445932,6759050.903821338,1.1414517157012258,2.247579866996948E-9,-0.17980470729517214,3.2271808031965893E-9,-1.3250831126112976,0.876595054568748,0.4866556617840166,4.658681209898652E-20,-0.0011222300308759384,4.0657581468206416E-20,338906.60056105873,1.6659256972001E-11,1161.2222717587929,-1.6131574670936661,8.68487220524405,0.13840373942612524
1680.0,-5318906.797056601,-4072063.446483131,-467227.1102191954,1504856.6024449964,-6527404.812721318,-468149.9945776585,4583.271196560487,1523.259470932573,-6034.9379391492375,-1.9810775817243333,8.593039568111102,0.6162993887762092,6759050.821687797,1.1458269849495775,2.5068582534418642E-9,-0.17809380870259073,3.332945555854097E-9,-1.248857112718567,0.8577192397597972,0.586585879596162,4.658681209898652E-20,-0.0011222300308759384,4.0657581468206416E-20,336933.22651096014,1.7268339518641333E-11,1161.084144547008,-1.9810771541794268,8.593039715248008,0.6162987606129203
1740.0,-5127960.194986816,-4252603.934224351,-827712.7905355421,1776070.0714420793,-6420615.670291481,-828850.9890812729,4453.5875633567175,2035.0431649406717,-5983.670576826514,-2.3400676194924066,8.459503964452857,1.092056081941963,6759050.739480324,1.1502022541979289,2.7757828094539686E-9,-0.17634239724121234,3.4178987677862997E-9,-1.1776021910183951,0.8341299041581928,0.6817339182474753,4.658681209898652E-20,-0.0011222300308759384,4.0657581468206416E-20,335290.5171554316,1.77667243171436E-11,1160.2953036354643,-2.3400672045221764,8.45950416285715,1.0920554589437035
1800.0,-4914298.287361475,-4414833.0120692,-1184273.8277185364,2038862.5275133208,-6283384.667586223,-1185621.9438267008,4302.6784333355445,2537.5764226723572,-5903.982015034544,-2.6882916854615058,8.284799738791534,1.5632728296025056,6759050.657207784,1.154577523446217,3.052876373314963E-9,-0.17455479332001717,3.480271796398198E-9,-1.1118280220767305,0.8062766880116068,0.7716403607034311,4.658681209898652E-20,-0.0011222300308759384,4.0657581468206416E-20,333983.398986887,1.814157054645102E-11,1158.8660906141306,-2.688291285070941,8.284799987580351,1.5632722147606217
1860.0,-4678750.050879916,-4558164.352444174,-1535215.5590898383,2291980.9008462457,-6116340.511312684,-1536767.1961635745,4131.243696657495,3028.4108424788164,-5796.216480713982,-3.023960947109313,8.069688454908455,2.027558248016195,6759050.57487885,1.1589527926945367,3.3364006942906323E-9,-0.1727355028333381,3.5184984599618057E-9,-1.0517504053459263,0.7746230677634026,0.8561414947168459,4.658681209898652E-20,-0.0011222300308759384,4.0657581468206416E-20,333013.42314872297,1.8383522731208284E-11,1156.809388119576,-3.0239605632348323,8.06968875294562,2.0275576442874383
1920.0,-4422246.891570914,-4682094.309565834,-1878868.237532949,2534217.3011679957,-5920257.306145302,-1880616.028641016,3940.0888560366125,3505.150474588651,-5660.861000700413,-3.3453457450078483,7.815156395186202,2.4825462416315434,6759050.492503801,1.163328061942793,3.624607058672673E-9,-0.17088919463771673,3.5313121326991284E-9,-0.9973527367978705,0.7396217670936759,0.9353082676694179,4.658681209898652E-20,-0.0011222300308759384,4.0657581468206416E-20,332378.84363940783,1.848721727822857E-11,1154.1404435707382,-3.3453453795066297,7.815156741087469,2.4825456519220865
1980.0,-4145818.9056748967,-4786203.870314735,-2213595.5399229433,2764415.241097434,-5696051.0053673675,-2215531.182420032,3730.1211326917983,3965.4651873519874,-5498.543431348677,-3.6507869923221707,7.52241036643843,2.9259111004944116,6759050.410092411,1.1677033311910492,3.915712628122908E-9,-0.16902067696047512,3.5171567164373705E-9,-0.9484529480630111,0.7016982752092156,1.0093798078855842,4.658681209898652E-20,-0.0011222300308759384,4.0657581468206416E-20,332074.74797185505,1.8451547137068784E-11,1150.8768390263228,-3.650786646961913,7.522410758578299,2.925910527644103
2040.0,-3850590.5910822796,-4870160.1849829415,-2537802.9303688845,2981475.605555324,-5444775.068160136,-2539917.2253311006,3502.344899633252,4407.103728247514,-5310.029584850422,-3.938707176947313,7.19287172255653,3.3553824868739497,6759050.327654488,1.1720786004407024,4.207584421126761E-9,-0.1671348728864603,3.4748991465691284E-9,-0.9047641662901265,0.6612415958616468,1.0787032667242924,4.658681209898652E-20,-0.0011222300308759384,4.0657581468206416E-20,332093.23697232496,1.8279663584980872E-11,1147.0386273985098,-3.93870685339652,7.192872159076562,3.355381933640926
2100.0,-3537776.0298395264,-4933717.667635398,-2849945.8243958335,3184362.3276611515,-5167615.345048539,-2852228.720672199,3257.8564697900792,4827.906373459995,-5096.219463625996,-4.207620844741671,6.8281686347704875,3.768760153135944,6759050.2452000305,1.176453869688895,4.498463400347333E-9,-0.16523679507843728,3.4035588054449323E-9,-0.8659435687353036,0.618600566253703,1.1436855158892063,4.658681209898652E-20,-0.0011222300308759384,4.0657581468206416E-20,332423.64930459624,1.7978720699963734E-11,1142.6486343067454,-4.207620544560528,6.8281691135890705,3.7687596221817175
2160.0,-3208673.5668152845,-4976718.658884653,-3148537.501160054,3372107.7334121703,-4865884.219314258,-3150978.143810474,2997.838273640827,5225.817062439735,-4858.142623641735,-4.456144447303707,6.430126665538463,4.163928233673931,6759050.162739123,1.180829138937088,4.7860702505130595E-9,-0.16333151989594363,3.3022403753855543E-9,-0.8316283911062119,0.5740839904233815,1.2047577505096667,4.658681209898652E-20,-0.0011222300308759384,4.0657581468206416E-20,333052.82534052955,1.7559393168826904E-11,1137.7329049421417,-4.456144171935627,6.430127184361956,4.163927727549073
2220.0,-2864660.0136156464,-4999093.647368816,-3432156.7123211375,3543817.5197250377,-4541014.0382842785,-3434743.49518238,2723.552467796152,5598.894917960446,-4596.952696842805,-4.6830054449591865,6.000757726723026,4.538868957391814,6759050.08028151,1.1852044081852489,5.0677764876090075E-9,-0.16142416108573387,3.1707045513902818E-9,-0.8014605219080256,0.5279630998703915,1.2623515766642455,4.658681209898652E-20,-0.0011222300308759384,4.0657581468206416E-20,333965.40419099684,1.703521809444943E-11,1132.3212577475917,-4.683005195723082,6.000758283058183,4.5388684785223266
2280.0,-2507184.4110559234,-5000861.049399421,-3699454.938277548,3698675.333100018,-4194549.874216744,-3702175.560371766,2436.3340222726624,5945.325057743864,-4313.921111914136,-4.887050564935146,5.542247526192322,4.891675633766525,6759049.99783722,1.1895796774333782,5.341578610049125E-9,-0.15951984321903956,3.008207718164284E-9,-0.7751020651879247,0.48047523808041687,1.3168842134597762,4.658681209898652E-20,-0.0011222300308759384,4.0657581468206416E-20,335144.14709134697,1.642182388891985E-11,1126.4478914363158,-4.887050343018483,5.5422481173599,4.891675184441021
2340.0,-2137761.3869916224,-4982126.549775911,-3949163.2450815993,3835946.9192044483,-3828141.659936039,-3952004.7705570674,2137.583339871763,6263.428610629845,-4010.430061140138,-5.067253125928362,5.056941628779329,5.220564774810778,6759049.915415512,1.1939549466814758,5.604983943485378E-9,-0.15762367505559585,2.8148465648604906E-9,-0.752244307993298,0.4318280279871511,1.3687503877295812,4.658681209898652E-20,-0.0011222300308759384,4.0657581468206416E-20,336570.27990082797,1.573611310679306E-11,1120.1519771451553,-5.067252932381044,5.056942251928761,5.220564357168532
2400.0,-1757964.1496348847,-4943082.010116009,-4180098.698455978,3954983.817029912,-3443535.7493559783,-4183047.619727302,1828.7584660242917,6551.671858427969,-3687.9647690493666,-5.2227193531587,4.547330277104581,5.523887227084166,6759049.833026065,1.1983302159295892,5.855688232817375E-9,-0.15574072301460049,2.590606944809681E-9,-0.7326121724846089,0.38220356820713147,1.418318857943312,4.658681209898652E-20,-0.0011222300308759384,4.0657581468206416E-20,338223.8472481078,1.4995461631202995E-11,1113.4781503569372,-5.222719188887816,4.5473309292296,5.523886843104131
2460.0,-1369417.1593146378,-4884003.954385791,-4391170.294888287,4055226.574907727,-3042565.9574857433,-4394212.598623524,1511.3669515961567,6808.6744338370545,-3348.1051256685837,-5.352693622272627,4.0160321346950605,5.800138202025321,6759049.75067788,1.2027054851776549,6.091295993698265E-9,-0.1538759849317029,2.3358391428603554E-9,-0.7159657603502887,0.33176240803136536,1.4659319787053153,4.658681209898652E-20,-0.0011222300308759384,4.0657581468206416E-20,340084.07081527304,1.4216985696004308E-11,1106.476794539091,-5.352693488038083,4.016032812650145,5.800137853516174
2520.0,-973788.5240280943,-4805251.644527995,-4581384.373741341,4136207.469517902,-2627144.138391801,-4584505.609326602,1186.9574343918457,7033.216514999705,-2992.5167534415045,-5.456562585770408,3.465777127716653,6.047966108955582,6759049.668379708,1.207080754425705,6.309396593865081E-9,-0.1520343642785066,2.051026404528905E-9,-0.7021001542334692,0.28064718572357594,1.5119071629553567,4.658681209898652E-20,-0.0011222300308759384,4.0657581468206416E-20,342129.70440533524,1.3416913352193921E-11,1099.2039797007255,-5.4565624821814795,3.465777828234165,6.047965797546849
2580.0,-572782.1660110228,-4707264.762148636,-4749849.478617389,4197552.713046761,-2199250.362828102,-4753034.828715505,857.1110073951187,7224.2449681698645,-2622.941582083091,-5.533858151646386,2.8993885722008073,6.266180112765951,6759049.586140173,1.211456023673723,6.507757293785782E-9,-0.1502206450137468,1.7369713168067155E-9,-0.6908442813416954,0.2289858978076191,1.5565394616316075,4.658681209898652E-20,-0.0011222300308759384,4.0657581468206416E-20,344339.37875735067,1.261008107109326E-11,1091.7208905984758,-5.533858079159174,2.8993892919086854,6.266179839900254
2640.0,-168129.8079411795,-4590560.715075788,-4895780.640797121,4238984.137772843,-1760922.759819642,-4899014.99360624,523.4324431152326,7380.878401414727,-2241.188009759662,-5.584259300264735,2.3197647806894315,6.453756357125339,6759049.503967138,1.2158312929217412,6.684181603643985E-9,-0.14843946723077558,1.3945949606643456E-9,-0.6820593755682828,0.1768948151490494,1.6001047527347216,4.658681209898652E-20,-0.0011222300308759384,4.0657581468206416E-20,346691.9295443728,1.1809562036448484E-11,1084.0925697657335,-5.584259259180546,2.3197655161293143,6.453756124051808
2700.0,238417.1717658329,-4455731.590226902,-5018503.062369152,4260320.351540874,-1314247.088355199,-5021771.085179394,187.5413437558793,7502.411104029593,-1849.1207319503735,-5.60759274178576,1.7298603456349093,6.6098428135946365,6759049.421868565,1.2202065621697118,6.836541098081411E-9,-0.14669530375562181,1.0251399504765599E-9,-0.6756373840650823,0.12448108741901312,1.642863225539049,4.658681209898652E-20,-0.0011222300308759384,4.0657581468206416E-20,349166.7025893424,1.1026422605772704E-11,1076.38584351558,-5.607592732250386,1.7298610932805438,6.60984262136348
2760.0,645095.9647730059,-4303440.776565361,-5117455.181604179,4261477.3617504025,-861346.1065100579,-5120741.395246214,-148.93671369398035,7588.315858192579,-1448.650321129658,-5.603832432333516,1.132667296686826,6.733762736848881,6759049.339851319,1.2245818314176822,6.962790412304676E-9,-0.14499243783968901,6.29967644912105E-10,-0.6714995346552755,0.07184508987452876,1.6850629784726325,4.658681209898652E-20,-0.0011222300308759384,4.0657581468206416E-20,351743.83103784395,1.0269598613045447E-11,1068.6664350556398,-5.603832454337417,1.1326680529626487,6.733762586307158
2820.0,1050140.5901481851,-4134419.283977431,-5192191.108135571,4242468.669592513,-404368.8057748741,-5195479.961913573,-484.37896989835025,7638.245621123785,-1041.722641005133,-5.573097982222291,0.5311963252632896,6.825016725842536,6759049.25792237,1.228957100665621,7.061012571966577E-9,-0.1433349420793436,2.106326627837099E-10,-0.6695951950211226,0.019082571211794665,1.7269436371919207,4.658681209898652E-20,-0.0011222300308759384,4.0657581468206416E-20,354404.48001122446,9.545882981519386E-12,1060.995516342499,-5.573098035601636,0.5311970865630432,6.825016617631096
2880.0,1451790.1342761894,-3949461.7856226307,-5242382.420518881,4203404.840249102,54520.42187430793,-5245658.367222329,-817.1741480190208,7652.034087417428,-630.3081784818271,-5.515652003615753,-0.07154173726788571,6.883283409784724,6759049.176087642,1.2333323699135281,7.1291005323345765E-9,-0.14172665868173442,-2.310232408656635E-10,-0.6699010994764639,-0.03371333770906496,1.7687399555752512,4.658681209898652E-20,-0.0011222300308759384,4.0657581468206416E-20,357131.0551019511,8.860017505229757E-12,1053.426259533199,-5.515652088054299,-0.0715409745626126,6.883283344336328
2940.0,1848296.9255935787,-3749422.412702103,-5267819.323685446,4144492.5585858696,513152.61753891484,-5271066.894279054,-1145.730929075537,7629.695152108349,-216.39137484485423,-5.431896457704519,-0.6725540116139239,6.908418795800364,6759049.094353259,1.2377076391614352,7.16535397365982E-9,-0.14017118118265384,-6.929438064483541E-10,-0.672420983679099,-0.08645019493101144,1.8106853961101195,4.658681209898652E-20,-0.0011222300308759384,4.0657581468206416E-20,359907.37194921635,8.21488008559851E-12,1046.0011745442187,-5.431896572736302,-0.6725532511153482,6.908418773338948
3000.0,2237934.5979752387,-3535210.3316316125,-5268411.168613422,4066033.1834680378,969365.0245114064,-5271615.046212205,-1468.4861798772292,7571.421305228675,198.03996506735308,-5.322368072635395,-1.268883069471132,6.900454331802603,6759049.012724039,1.2420829084093103,7.168327633191666E-9,-0.13867183770741304,-1.1729195775128878E-9,-0.6771856436975451,-0.13903433958580858,1.8530157035551638,4.658681209898652E-20,-0.0011222300308759384,4.0657581468206416E-20,362718.78501828003,7.611750989033737E-12,1038.7509739855884,-5.322368217648188,-1.2688823147672235,6.900454352343674
3060.0,2619005.998592465,-3307785.1343010287,-5244186.341160051,3968420.817169485,1421011.729987853,-5247331.433907012,-1783.9128801484817,7477.58099796838,611.0051105963361,-5.187732912815704,-1.8576236912103241,6.8595937530718984,6759048.931204623,1.246458177657154,7.136639048146385E-9,-0.1372316758501472,-1.6686519687490813E-9,-0.6842534168851083,-0.1913689467470913,1.8959724901330555,4.658681209898652E-20,-0.0011222300308759384,4.0657581468206416E-20,365552.2745913182,7.050629562557595E-12,1031.6953088362493,-5.18773308705519,-1.857622945847146,6.85959381642402
3120.0,2989850.898408834,-3068152.072453303,-5195291.5313698435,3852139.9093996584,1865974.1190913245,-5198363.043846646,-2090.527700541396,7348.715028931567,1020.5406193120286,-5.028780187741284,-2.435938751304331,6.786208794083615,6759048.849799365,1.2508334469049975,7.069094869244607E-9,-0.13585344923265333,-2.177556658627729E-9,-0.6937110622685335,-0.2433519861205107,1.939806842710843,4.658681209898652E-20,-0.0011222300308759384,4.0657581468206416E-20,368396.4918395861,6.530563303271451E-12,1024.845116813834,-5.0287803903159185,-2.4359380187688635,6.786208899850943
3180.0,3348853.4661246263,-2817357.1672330177,-5121990.398651974,3717762.4182083174,2302171.0840521767,-5124973.901468089,-2386.8981886964343,7185.532006296178,1424.710262016542,-4.846415394080035,-3.001074118983514,6.680833858064705,6759048.76851165,1.2552087161527934,6.964611486754801E-9,-0.1345396057877549,-2.696919311711651E-9,-0.7056749917328229,-0.2948740250441486,1.9847829409303654,4.658681209898652E-20,-0.0011222300308759384,4.0657581468206416E-20,371241.7626745037,6.049951446041055E-12,1018.2058369116382,-4.846415623966536,-3.001073402687044,6.6808340056505315
3240.0,3694449.469275588,-2556482.224654197,-5024661.651971016,3565944.552426936,2727568.934930912,-5027543.149194061,-2671.649526253464,6988.902947853357,1821.6145991644453,-4.641652888361742,-3.5503724810674107,6.544159745462074,6759048.68734436,1.2595839854005895,6.822346098642931E-9,-0.13329227779903977,-3.224115854326964E-9,-0.720292763286296,-0.3458158160639617,2.031181636021894,4.658681209898652E-20,-0.0011222300308759384,4.0657581468206416E-20,374080.05186115677,5.606796484208304E-12,1011.7806121907013,-4.6416531444111655,-3.5503717843295566,6.544159934073335
3300.0,4025133.1692866506,-2286639.787135714,-4903796.567575802,3397423.1223562923,3140190.9621431474,-4906562.561684624,-2943.4708256176777,6759.855085889439,2209.400155436411,-4.4156079893353475,-4.08128601386268,6.3770265489225615,6759048.606300249,1.2639592546483536,6.64175304752124E-9,-0.13211327371181508,-3.756070083880089E-9,-0.7377446853523599,-0.39604561115662457,2.079303876106844,4.658681209898652E-20,-0.0011222300308759384,4.0657581468206416E-20,376904.8896043093,5.198893515592779E-12,1005.5728229416472,-4.4156082702797015,-4.081285339896126,6.3770267775752485
3360.0,4339463.880510349,-2008968.050380456,-4759995.969790639,3213011.527101003,3538126.6051843073,-4762633.523853115,-3201.1209412328644,6499.5649476601375,2586.2681457931285,-4.169488708914017,-4.591387850984779,6.180415826513978,6759048.525381483,1.268334523896086,6.422513348072019E-9,-0.13100407171869582,-4.2893547580006374E-9,-0.7582452848773432,-0.44541615112965127,2.1294737648377815,4.658681209898652E-20,-0.0011222300308759384,4.0657581468206416E-20,379711.26348320843,4.823961456799096E-12,999.587664500762,-4.169489013373355,-4.591387202880767,6.180416094039416
3420.0,4636072.166600287,-1724625.7737596862,-4593966.702990381,3013595.4082910605,3919540.186279052,-4596463.499789485,-3443.433776003079,6209.350784804525,2950.482713109577,-3.9045872087726226,-5.078382313523662,5.955442166817565,6759048.444589086,1.2727097931452471,6.164086619729865E-9,-0.12996581510837688,-4.821328548578452E-9,-0.7820442474068606,-0.4937612940929427,2.1820408922704075,4.658681209898652E-20,-0.0011222300308759384,4.0657581468206416E-20,382495.4792080571,4.479727894387149E-12,993.8328035689449,-3.904587535262576,-5.078381694238308,5.955442471869477
3480.0,4913665.650944971,-1434787.2109814694,-4406517.625067767,2800128.000918338,4282679.172132179,-4408862.022921971,-3669.323069231742,5890.664426495288,3300.378644309466,-3.622271076243155,-5.540113887760202,5.703344259309066,6759048.363924234,1.2770850623929477,5.866648991532497E-9,-0.12899930935600623,-5.348234345661838E-9,-0.8094262268502738,-0.5408922778272944,2.237381363017668,4.658681209898652E-20,-0.0011222300308759384,4.0657581468206416E-20,385254.9941900226,4.163980954492333E-12,988.3183222503199,-3.622271423182846,-5.540113300101662,5.703344600371402
3540.0,5171034.421176669,-1140637.086440824,-4198555.154483,2573625.212668387,4625881.9314600155,-4200736.239530311,-3877.786657928165,5545.082631468126,3634.3685386713883,-3.3239745083507977,-5.97457495330165,5.425475581269362,6759048.283387218,1.2814603316406326,5.530589061102747E-9,-0.1281050209202811,-5.86708844942506E-9,-0.840708629415457,-0.5865936672686118,2.295896650203597,4.658681209898652E-20,-0.0011222300308759384,4.0657581468206416E-20,387988.228355222,3.8745995808777534E-12,983.056203075949,-3.3239748740710944,-5.97457439991819,5.425475956664791
3600.0,5407056.011151687,-843365.6407485014,-3971078.404367577,2335160.463459526,4947584.960474851,-3973086.039106104,-4067.9102084888355,5174.298013411694,3950.9494085394713,-3.011189486848026,-6.37991228076566,5.123294808516878,6759048.2029780075,1.2858356008883016,5.1563270963016656E-9,-0.12728307770570277,-6.374604957491413E-9,-0.8762360914514021,-0.6306191339218377,2.3580090159774167,4.658681209898652E-20,-0.0011222300308759384,4.0657581468206416E-20,390694.35698538925,3.6095704430907E-12,978.0595753626842,-3.01118986960008,-6.379911764134662,5.123295216415933
3660.0,5620699.946894905,-544163.7673741813,-3725173.9381484166,2085859.316937248,5246329.552921125,-3726998.8060502424,-4238.870420526597,4780.1096125989825,4248.708698953793,-2.6854570201514383,-6.7544323327742966,4.798356051742914,6759048.1226959275,1.2902108701359387,4.744548588961813E-9,-0.1265332711360801,-6.86750702578891E-9,-0.9163699115272735,-0.6726873660975076,2.4241517772131123,4.658681209898652E-20,-0.0011222300308759384,4.0657581468206416E-20,393373.0906301747,3.3669967783292104E-12,973.3418826035146,-2.6854574181154645,-6.754431855192215,4.79835649017369
3720.0,5811031.84611705,-244218.2603312745,-3462010.181789759,1826893.935431519,5520767.89556576,-3463643.827828675,-4389.937708948602,4364.413184224601,4526.329718621201,-2.3483585203768236,-7.096605414850041,4.452299013399949,6759048.042540104,1.29458613938356,4.295989121329958E-9,-0.1258550597807295,-7.342394568349185E-9,-0.9614702371105424,-0.7124786350961471,2.4947522326655,4.658681209898652E-20,-0.0011222300308759384,4.0657581468206416E-20,396024.44730448665,3.145102320367899E-12,968.9160712504388,-2.3483589316710676,-7.096604978423346,4.452299480258322
3780.0,5977217.063788628,55292.80905031952,-3182831.5280383434,1559477.389402364,5769668.574181537,-3184266.3949956014,-4520.478374229062,3929.1912707770803,4782.596480113349,-2.001507375426425,-7.405068733722941,4.086839152178652,6759047.962508863,1.2989614086311496,3.811852108783959E-9,-0.1252475744665146,-7.795937052970208E-9,-1.011868526296583,-0.7496328523296835,2.5702047858644868,4.658681209898652E-20,-0.0011222300308759384,4.0657581468206416E-20,398648.52225655544,2.94223209074459E-12,964.7938550306603,-2.0015077981162825,-7.405068340360054,4.086839645238946
3840.0,6118523.878965582,353204.57017017883,-2888952.1680322206,1284857.8516984312,5991921.478994533,-2890181.6284676674,-4629.956274165338,3476.503122049066,5016.397952140957,-1.6465407675079295,-7.678628429501271,3.7037579333587582,6759047.882600115,1.3033366778787392,3.29363940399695E-9,-0.1247096248065286,-8.224876347656378E-9,-1.06782805043393,-0.7837503289759215,2.6508320416349607,4.658681209898652E-20,-0.0011222300308759384,4.0657581468206416E-20,401245.2605675393,2.7568510338588868E-12,960.9850775906824,-1.6465411996151604,-7.678628080905513,3.703758450284809
3900.0,6234326.220561242,648369.6718721157,-2581749.6853301465,1004312.7060694591,6186542.1022571,-2582768.069128742,-4717.934013226505,3008.474522179844,5226.731731173226,-1.2851117807611723,-7.916260655110741,3.3048932339812804,6759047.802811685,1.307711947126297,2.7430275079606206E-9,-0.12423970706939888,-8.62606971342686E-9,-1.1294915110986394,-0.814396819757678,2.736832960219874,4.658681209898652E-20,-0.0011222300308759384,4.0657581468206416E-20,403814.2377210627,2.587541061519928E-12,957.4971772203232,-1.2851122202731784,-7.916260352774296,3.3048937723378304
3960.0,6324105.932038787,939662.4295835791,-2262658.446861657,719142.5983343174,6352675.224036693,-2263461.0642873487,-4784.073667904678,2527.2875785630386,5412.707143517564,-0.9188818320129166,-8.117111781414806,2.8921299620876764,6759047.723140288,1.312087216373823,2.161804439345838E-9,-0.12383601331185223,-8.996406286835464E-9,-1.1968178447601836,-0.8411146295543159,2.8282201515922627,4.658681209898652E-20,-0.0011222300308759384,4.0657581468206416E-20,406354.45306070655,2.432996872413833E-12,954.3347470733036,-0.9188822768920288,-8.117111526613698,2.892130519352052
4020.0,6387454.57705035,1225982.790491696,-1933162.824533405,430665.4574470179,6489597.985458836,-1933745.9847435446,-4828.137068265741,2035.1705226431586,5573.547792235923,-0.5495134502363367,-8.280497809539723,2.467390939428237,6759047.643583028,1.3164624856213492,1.5521083917986108E-9,-0.12349644169505958,-9.33294099934094E-9,-1.2695153354017101,-0.8634413095790334,2.9247534383934064,4.658681209898652E-20,-0.0011222300308759384,4.0657581468206416E-20,408864.14074475714,2.2920208207884202E-12,951.4991794198613,-0.549513898429078,-8.280497603329811,2.4673915130022417
4080.0,6424074.789862247,1506260.1081434204,-1594790.280281451,140210.51244873536,6596722.351492876,-1595151.3052752272,-4849.985657185152,1534.3875676857783,5708.5935659419165,-0.17866342220334014,-8.405903073275539,2.0326280872622045,6759047.56413572,1.3208377548688435,9.16105739325971E-10,-0.12321860790421048,-9.63261463841985E-9,-1.3469846107882495,-0.8809364400313974,3.02588327048368,4.658681209898652E-20,-0.0011222300308759384,4.0657581468206416E-20,411340.60240489215,2.1635170648992636E-12,948.9883806267493,-0.17866387164962247,-8.405902916489524,2.032628674484176
4140.0,6433781.17599645,1779456.719538262,-1249104.3462725938,-150887.67002098294,6673596.967929847,-1249241.5802663635,-4849.579949573942,1027.2288636341168,5817.302128613767,0.19202368579655615,-8.492978314099554,1.5898139453189055,6759047.4847944,1.325213024116306,2.561873662793672E-10,-0.12299985759232453,-9.892675637109293E-9,-1.4282905363548632,-0.8932150022245605,3.1307230116596725,4.658681209898652E-20,-0.0011222300308759384,4.0657581468206416E-20,413780.06524213834,2.0464851960311003E-12,946.796543098463,0.1920232371543389,-8.492978207344974,1.5898145434758826
4200.0,6416500.769870453,2044571.3193589998,-897697.5307613323,-441295.1043331031,6719908.419455225,-897610.3450021733,-4826.978614277123,516.0005842604885,5899.249911085337,0.5609216273335608,-8.541538209565479,1.140933544840935,6759047.405554418,1.3295882933637686,-4.2503525833955863E-10,-0.12283727976711203,-1.011050122877552E-8,-1.5121822731259915,-0.8999831605438784,-3.0451159362149447,4.658681209898652E-20,-0.0011222300308759384,4.0657581468206416E-20,416177.56873932556,1.9400135189604364E-12,944.9139602364788,0.5609211815415798,-8.54153815322369,1.140934151180873
4260.0,6372273.05736361,2300642.1274388586,-542184.178838664,-729684.2386391982,6735481.897693268,-541872.9718848936,-4782.337201303091,3.0151770640631486,5954.1326258695535,0.9264281998584586,-8.551558432629703,0.6879766479966442,6759047.326410929,1.3339635626111994,-1.1247405818389264E-9,-0.12272772104342047,-1.0283653483554356E-8,-1.5971719738144268,-0.9010698719712734,-2.93670384884992,4.658681209898652E-20,-0.0011222300308759384,4.0657581468206416E-20,418526.88256820524,1.8432721171735802E-12,943.3268698080299,0.9264277589426713,-8.551558426855822,0.6879772597406355
4320.0,6301249.572170831,2546749.8468856984,-184193.31599302613,-1014739.7211934606,6720281.289786302,-183659.50950689407,-4715.906536654782,-509.4181981625148,5981.765327463901,1.286970602582713,-8.523172315162117,0.23293035796042982,6759047.247358421,1.3383388318585985,-1.8399225820176998E-9,-0.12266780068462868,-1.0409720667540588E-8,-1.681665056096015,-0.8964470430168959,-2.828773898353105,4.658681209898652E-20,-0.0011222300308759384,4.0657581468206416E-20,420820.45761480264,1.7555065580346526E-12,942.0173988955055,1.286970168540289,-8.523172359885901,0.23293097231487142
4380.0,6203693.075550289,2782020.4114776505,174638.49892745007,-1295164.0609340672,6674408.699500245,175392.4688141988,-4628.030806329977,-1019.0030204153703,5982.082040324174,1.64101044234904,-8.456667183553936,-0.22222790331027628,6759047.168391302,1.3427141011059978,-2.56752247653303E-9,-0.12265392635886807,-1.0486870827825158E-8,-1.764115671211135,-0.8862329656686865,-2.722825108398981,4.658681209898652E-20,-0.0011222300308759384,4.0657581468206416E-20,423049.41136698466,1.6761000489926864E-12,940.9718102257011,1.641010017140024,-8.456667278481564,-0.22222728914161224
4440.0,6079976.32964465,3005627.5219938047,532674.2860831597,-1569683.164297237,6598103.414029588,533644.981755619,-4519.145350082311,-1523.4645304213461,5955.13497631361,1.9870484057601097,-8.352480428176197,-0.6755370590492551,6759047.089503627,1.347089370353365,-3.3042785585824125E-9,-0.12268231053877536,-1.0513360848510226E-8,-1.8431705215560032,-0.8706780890864685,-2.620163494749016,4.658681209898652E-20,-0.0011222300308759384,4.0657581468206416E-20,425203.54821235075,1.604608429253882E-12,940.1871386355407,1.9870479912993437,-8.352480572792949,-0.6755364478532961
4500.0,5930580.474976403,3216794.9720535325,888283.6983604064,-1837051.731437787,6491740.330635314,889466.6979698554,-4389.7741843333915,-2020.5586111541722,5901.093362696798,2.323628619181733,-8.211195361624013,-1.1250586984929112,6759047.010688879,1.3514646396007006,-4.046828315056023E-9,-0.12274898747544849,-1.048766450292176E-8,-1.9177690958418172,-0.8501369484569624,-2.5218014744132558,4.658681209898652E-20,-0.0011222300308759384,4.0657581468206416E-20,427271.4145006487,1.5406307964080344E-12,939.6574833853358,2.3236282173310676,-8.211195555197774,-1.125058093035547
4560.0,5756093.023004178,3414798.7648152336,1239849.9936899086,-2096058.49615308,6355827.858011518,1241239.9125644963,-4240.5272722491345,-2508.080414718403,5820.241900694514,2.6493427208019273,-8.033536913365255,-1.5688830743838196,6759046.931940197,1.3558399088480522,-4.7916651122550124E-9,-0.12284983068122121,-1.0408455015544495E-8,-1.9871855662819926,-0.8250331024568904,-2.4284156009713205,4.658681209898652E-20,-0.0011222300308759384,4.0657581468206416E-20,429240.3875478047,1.483797378100511E-12,939.3726257665487,2.649342333362741,-8.033537154950842,-1.5688824773983907
4620.0,5557205.474806665,3598969.0225220686,1585776.9043803404,-2345531.29484279,6191005.307868965,1587367.4204834069,-4072.0975574850127,-2983.872727022715,5712.978873301555,2.962833670719353,-7.820367200748828,-2.0051348009043943,6759046.853250759,1.360215178095356,-5.53519666987838E-9,-0.12298057085782294,-1.027469041561001E-8,-2.0510169605348225,-0.7958242030497785,-2.340358007866869,4.658681209898652E-20,-0.0011222300308759384,4.0657581468206416E-20,431096.79711429763,1.4337697089553852E-12,939.3180551667922,2.9628332994253928,-7.820367489193084,-2.005134215080447
4680.0,5334710.5770513015,3768691.6913871616,1924495.3829574846,-2584341.9507805514,5998039.792668777,1926279.266268527,-3885.2577765104975,-3445.8340638267014,5579.813919553967,3.2627993260842802,-7.572681008469881,-2.4319782787755746,6759046.774612975,1.3645904473426438,-6.2737110182032535E-9,-0.12313681421018016,-1.0085778310823068E-8,-2.109134718164929,-0.7629723965717383,-2.257704444072794,4.658681209898652E-20,-0.0011222300308759384,4.0657581468206416E-20,432826.0772879556,1.3902358983901462E-12,939.4743324266128,3.2627989725948523,-7.572681342417496,-2.431977706747914
4740.0,5089499.226436136,3923410.0446950817,2254470.20498084,-2811410.960818298,5777822.6457743365,2256439.3506634803,-3680.857062790172,-3891.926493433292,5421.3654907578175,3.547995808639685,-7.291601200652566,-2.8476228763711267,6759046.696019223,1.3689657165913447,-7.003506087984702E-9,-0.1233140610873565,-9.841367628822751E-9,-2.1616196039030005,-0.7269225276843889,-2.1803189234989433,4.658681209898652E-20,-0.0011222300308759384,4.0657581468206416E-20,434412.94615921675,1.352885771754518E-12,939.813482364662,3.547995474533197,-7.291601578552597,-2.84762232070919
4800.0,4822557.033741019,4062625.9873096873,2574206.4101864235,-3025711.9723921944,5531365.380532316,2576351.8753976477,-3459.8173544631377,-4320.183182511112,5238.358002420155,3.817240691657958,-6.978374081839663,-3.2503278969528173,6759046.6174619375,1.373340985838585,-7.72086297456419E-9,-0.12350772489741556,-9.541057746880062E-9,-2.208695936693314,-0.688088294296269,-2.1079190221478163,4.658681209898652E-20,-0.0011222300308759384,4.0657581468206416E-20,435841.61019521253,1.3214729368284553E-12,940.307814698628,3.8172403784258266,-6.9783745019527,-3.250327360150408
4860.0,4534960.558705782,4185901.164789465,2882255.564074317,-3226276.0393498647,5259795.204980526,2884567.608259688,-3223.129615570861,-4728.71566227692,5031.618693798565,4.069416032269465,-6.634364715467208,-3.6384073625480804,6759046.538933163,1.3777162550858253,-8.4219837129109E-9,-0.12371315124177808,-9.185056263885027E-9,-2.2506746269016698,-0.6468451100679354,-2.040132322827171,4.658681209898652E-20,-0.0011222300308759384,4.0657581468206416E-20,437095.98981147824,1.2963850017425267E-12,941.0161085579284,4.069415741310401,-6.634365175873155,-3.638406847013475
4920.0,4227873.226729605,4292857.880635774,3177221.8227191973,-3412195.645673955,4964350.109036439,3179689.9512295774,-2971.8498793695617,-5115.72081255776,4802.074205162705,4.303471273575948,-6.261052200966403,-4.010234644599698,6759046.460424144,1.3820915243330338,-9.103270931052073E-9,-0.12392563721865128,-8.773871194044665E-9,-2.287908774468102,-0.6035279206482173,-1.9765402458222783,4.658681209898652E-20,-0.0011222300308759384,4.0657581468206416E-20,438159.9623068928,1.2780402248424833E-12,941.9983690281778,4.303471006190617,-6.261052699572823,-4.0102341526461425
4980.0,3902540.9385719537,4383179.824916446,3457767.7841333416,-3582628.4866493936,4646373.541170409,3460380.794989891,-2707.095120858833,-5479.487561106486,4550.746881087302,4.5184260387858615,-5.860024903562383,-4.364246970350347,6759046.3819266325,1.3864667935802266,-9.760643532064261E-9,-0.12414045084530874,-8.308190753682629E-9,-2.3207618103773924,-0.5584322841620808,-1.9167092731424884,4.658681209898652E-20,-0.0011222300308759384,4.0657581468206416E-20,439017.6180710403,1.2668267483760176E-12,943.3035097989598,4.518425796171933,-5.860025438113386,-4.36424650418697
5040.0,3560287.3841543156,4456612.617570596,3722620.1099595316,-3736800.9974081507,4307308.691739123,3725366.143585216,-2430.038964406261,-5818.403294988576,4278.750806405993,4.713372836937091,-5.4329756242264935,-4.69894983202742,6759046.30343187,1.3908420628273876,-1.0390306872916369E-8,-0.12435285055279952,-7.789077976972722E-9,-2.3495862844949564,-0.5118173564256316,-1.860211451859788,4.658681209898652E-20,-0.0011222300308759384,4.0657581468206416E-20,439653.52579058264,1.2631706846502022E-12,944.9760547698052,4.713372620184673,-5.432976192312116,-4.698949393750561
5100.0,3202509.0717038736,4512964.169488665,3970574.9016220723,-3874011.6191069204,3948692.400374667,3973441.493349711,-2141.907231261004,-6130.959979919187,3987.2875799113017,4.887479696633703,-4.981696691151629,-5.01292132329322,6759046.224931361,1.3952173320745327,-1.0988496568854115E-8,-0.12455810470304679,-7.2179529321773634E-9,-2.37471082650672,-0.46390980836002876,-1.8066366366813176,4.658681209898652E-20,-0.0011222300308759384,4.0657581468206416E-20,440053.00227634446,1.2675757212036603E-12,947.0587952811716,4.887479506721158,-4.981697290217683,-5.012920914878196
5160.0,2830670.0836478486,4552104.864260921,4200502.815325759,-3993633.79325184,3572148.7051057527,4203476.950484527,-1843.973330871485,-6415.759982144193,3677.6418295101303,5.039992740675363,-4.508074948657009,-5.304816424184712,6759046.146416004,1.399592601321678,-1.1551436253247375E-8,-0.12475151108207272,-6.5966121197336135E-9,-2.3964329382776426,-0.41490804255330865,-1.7555987983597992,4.658681209898652E-20,-0.0011222300308759384,4.0657581468206416E-20,440202.38248991914,1.2806576556832072E-12,949.5944603154564,5.039992578465523,-4.508075576015366,-5.304816047478027
5220.0,2446296.5709422757,4573967.563240458,4411353.900480232,-4095118.674899086,3179382.051260441,4414422.071854664,-1537.553499264382,-6671.521585868339,3351.1764713832085,5.170238710535793,-4.014086614638998,-5.573371251915363,6759046.067877279,1.4039678705687753,-1.2075569585715367E-8,-0.12492841632105191,-5.9270101505446544E-9,-2.4150156964757974,-0.36498633371242606,-1.7067383017420825,4.658681209898652E-20,-0.0011222300308759384,4.0657581468206416E-20,440089.2853745279,1.3031786320136468E-12,952.6268655963237,5.170238576772549,-4.014087267478286,-5.57337090862736
5280.0,2050970.9978986087,4578547.436293586,4602162.146250617,-4177997.555641898,2772170.1786733307,4605310.41369835,-1224.001887330473,-6897.084197370793,3009.3277147846316,5.277627445414965,-3.501791973653334,-5.817407290509777,6759045.989306034,1.4083431398158728,-1.25572023134927E-8,-0.12508423519724987,-5.21161046134122E-9,-2.4306869171708305,-0.31429869608224187,-1.6597215817989592,4.658681209898652E-20,-0.0011222300308759384,4.0657581468206416E-20,439702.8711744496,1.3360822118022093E-12,956.2015027900713,5.277627340720249,-3.50179264905001,-5.817406982207752
5340.0,1646326.1500649871,4565901.620326962,4772049.721012705,-4241883.9874591995,2352356.706312701,4775263.773019508,-904.7055017123497,-7091.413224880196,2653.5998134832125,5.361654316097809,-2.9733298694989387,-6.035835607341092,6759045.910693493,1.4127184090629386,-1.299300523073969E-8,-0.1252144697653179,-4.4529121685396515E-9,-2.4436397514284307,-0.2629823957937972,-1.6142392257575313,4.658681209898652E-20,-0.0011222300308759384,4.0657581468206416E-20,439034.0860580729,1.380528364558399E-12,960.3652773147487,5.36165424096897,-2.973330564428738,-6.035835335442867
5400.0,1234038.9183493769,4536148.707391813,4920230.889540329,-4286475.598665528,1921843.4341661835,4923496.106483425,-581.0790011163506,-7253.604621030742,2285.55956452293,5.421902609155078,-2.4309119588365666,-6.227661059296147,6759045.832030803,1.4170936783099726,-1.3379737681537569E-8,-0.12531472826672393,-3.6539272919579664E-9,-2.4540340087705137,-0.21116109555377027,-1.5700031384100477,4.658681209898652E-20,-0.0011222300308759384,4.0657581468206416E-20,438075.89003637206,1.4379253468502217E-12,965.1649249980321,5.421902563962639,-2.4309126701862898,-6.227660825064116
5460.0,815823.8733243215,4489468.063893486,5046015.59279073,-4311555.59338149,1482582.3830838306,5049317.111673901,-254.55935128222848,-7382.889072373103,1906.8305549843612,5.458045852187897,-1.87681668598084,-6.391986485574393,6759045.753309712,1.4214689475570224,-1.3714305988963221E-8,-0.12538074376640018,-2.8178524593781396E-9,-2.4619977454556436,-0.15894765831782084,-1.5267432242044991,4.658681209898652E-20,-0.0011222300308759384,4.0657581468206416E-20,436823.4643824727,1.5099530602019606E-12,970.6435658070707,5.458045837173715,-1.876817410560476,-6.391986290110041
5520.0,393426.64454794535,4426098.982183195,5148812.675204132,-4316993.926158321,1036567.5942811035,5152135.455620761,73.39965745012825,-7478.635817999945,1519.0871577891671,5.469850065904438,-1.3133829386002185,-6.528016878095784,6759045.674521734,1.4258442168040246,-1.3993832544719524E-8,-0.12540839245996252,-1.9481707582767218E-9,-2.4676288220360627,-0.10644665693396521,-1.4842038488275404,4.658681209898652E-20,-0.0011222300308759384,4.0657581468206416E-20,435274.3950083855,1.5985704410036269E-12,976.8350110675896,5.469850081180244,-1.3133836731553847,-6.528016722334696
5580.0,-31382.879229569426,4346339.665593952,5228132.744515763,-4302748.143655257,585826.7113537728,5231461.63558882,401.33302503752986,-7540.356076946942,1124.0482783184048,5.4571759239000315,-0.7430033447043941,-6.635063514230777,6759045.595658227,1.430219486051027,-1.4215638414691957E-8,-0.1253937115949411,-1.0485362542781248E-9,-2.4709962473196057,-0.053756645964594486,-1.4421402272575161,4.658681209898652E-20,-0.0011222300308759384,4.0657581468206416E-20,433428.828536274,1.7059992192538981E-12,983.7559828433659,5.457175969446404,-0.7430040859290811,-6.635063398938155
5640.0,-456817.5119462661,4250546.047814204,5283590.649215974,-4268863.8856011275,132412.3689463279,5286910.457256929,727.7702828608487,-7567.706061699264,723.4708547233406,5.41998079616629,-0.16811717303116963,-6.712548030160028,6759045.516711612,1.4345947552979816,-1.4377179842821949E-8,-0.12533291694466875,-1.2287546174519867E-10,-2.4721411995291023,-9.722550879028907E-4,-1.4003148094474709,4.658681209898652E-20,-0.0011222300308759384,4.0657581468206416E-20,431289.59811074357,1.834679958717841E-12,991.3973762286623,5.419980871832018,-0.16811791758078057,-6.712547955926714
5700.0,-881079.8758650454,4139130.4473807784,5314907.559009906,-4215475.037692079,-321606.586356524,5318203.115631883,1051.2413532693467,-7560.489552937132,319.14311630362306,5.358320647658353,0.4087971981946564,-6.76000640670768,6759045.437674466,1.4389700245449362,-1.4475855620062467E-8,-0.1252224197731241,8.246701604923768E-10,-2.471077662771196,0.051813836194886755,-1.3584936871782474,4.658681209898652E-20,-0.0011222300308759384,4.0657581468206416E-20,428862.31633770344,1.9872046782937893E-12,999.7168283128767,5.358320753160234,0.40879645368998574,-6.760006373946715
5760.0,-1302369.6312291077,4012560.0580296023,5321912.633942469,-4142803.529601217,-774154.0157937212,5325168.864356603,1370.2825178734422,-7518.660008672105,-87.12239379039154,5.272351758797523,0.9852302751455022,-6.777092833080338,6759045.3585389275,1.443345293791875,-1.4509790589065308E-8,-0.1250588432234514,1.7896240311400797E-9,-2.4677926476141483,0.10450898345709932,-1.3164430180165996,4.658681209898652E-20,-0.0011222300308759384,4.0657581468206416E-20,426155.43310005596,2.1662413588630487E-12,1008.6354748366412,5.272351893720607,0.9852295340673157,-6.777092842024094
5820.0,-1718890.8086699161,3871355.275672862,5304544.268301105,-4051158.7719170596,-1223155.520061184,5307746.259519142,1683.4424828038286,-7442.322179209609,-493.4960230114429,5.1623322306501045,1.5586499307520183,-6.763583407686733,6759045.279298172,1.447720563038782,-1.4477320886929091E-8,-0.12483903806295799,2.767502525859469E-9,-2.462245986126408,0.15701866332095402,-1.2739254496204302,4.658681209898652E-20,-0.0011222300308759384,4.0657581468206416E-20,423180.25639968715,2.3744729459555446E-12,1018.0411046336958,5.1623323944483905,1.558649196479702,-6.763583458384611
5880.0,-2128859.221490619,3716087.8628864735,5262850.89598913,-3940936.7266039876,-1666547.5522723722,5265983.964649931,1989.2885268065907,-7331.733198011278,-898.1384298754086,5.028623233838572,2.1265103950282587,-6.719379629248938,6759045.19994613,1.4520958322856732,-1.4376993327396379E-8,-0.12456009771101513,3.753626319190907E-9,-2.4543697103219726,0.20924450198826042,-1.2306965274122534,4.658681209898652E-20,-0.0011222300308759384,4.0657581468206416E-20,419950.934795433,2.6145699390174873E-12,1027.7978175679602,5.028623425836175,2.1265096709249733,-6.719379721565686
5940.0,-2530509.9332595137,3547378.9519989737,5196991.344823624,-3812618.6065030256,-2102286.5798771726,5200041.104356516,2286.4127154886937,-7187.303117577619,-1299.2082063008493,4.871689957060292,2.686261765354881,-6.6445116258455,6759045.1204765905,1.4564711015325642,-1.4207675044534606E-8,-0.12421937247688222,4.743200315925112E-9,-2.4440670442983072,0.2610821872671011,-1.1865010808457017,4.658681209898652E-20,-0.0011222300308759384,4.0657581468206416E-20,416484.40047044534,2.889200032180075E-12,1037.7597226927626,4.871690176453111,2.6862610547532886,-6.64451175946018
6000.0,-2922104.7544102496,3365896.8881726405,5107234.728155237,-3666769.200471394,-2528358.261301188,5110187.154989192,2573.4381623014588,-7009.594859007519,-1694.8696844063575,4.692102208550321,3.235360040113405,-6.539141064515993,6759045.040884233,1.4608463707794237,-1.396845924965837E-8,-0.12381448293088704,5.731213472566945E-9,-2.43121107058118,0.3124192043814793,-1.141069610473814,4.658681209898652E-20,-0.0011222300308759384,4.0657581468206416E-20,412800.2724533882,3.2010584353824718E-12,1047.7847311905498,4.692102454408218,3.2353593463012245,-6.539141238921615
6060.0,-3301939.7397836116,3172354.9142706688,4993959.8633552585,-3504034.822009975,-2942786.601186056,4996801.361879828,2849.0253139919705,-6799.323543969779,-2083.300906768184,4.490534622020744,3.7712776694246783,-6.403563679730095,6759044.961164225,1.4652216400262512,-1.3658860066691262E-8,-0.12334333233043598,6.712950559631091E-9,-2.4156431777421714,0.36313233611652485,-1.0941147447858857,4.658681209898652E-20,-0.0011222300308759384,4.0657581468206416E-20,408920.7200448626,3.5528900875391674E-12,1057.7449598510261,4.490534893290262,3.771276995630103,-6.403563894233983
6120.0,-3668352.6572870556,2967508.6998139606,4857654.208090108,-3325140.88065334,-3343643.046253331,4860371.674072031,3111.8782353094944,-6557.35517851015,-2462.7017353291694,4.267766417630122,4.291514606149176,-6.23821135552474,6759044.881312357,1.4695969092745076,-1.3278811609240056E-8,-0.1228041180213879,7.683065951212091E-9,-2.39717146884231,0.4130848708881216,-1.0453279103719386,4.658681209898652E-20,-0.0011222300308759384,4.0657581468206416E-20,404870.28706710384,3.947475781593724E-12,1067.5321374161597,4.267766713137756,4.291513955526201,-6.238211609249641
