time,gePosition_m_X,gePosition_m_Y,gePosition_m_Z,eiPosition_m_X,eiPosition_m_Y,eiPosition_m_Z,eiVelocity_m_s_X,eiVelocity_m_s_Y,eiVelocity_m_s_Z,eiAccel_m_s2_X,eiAccel_m_s2_Y,eiAccel_m_s2_Z,semiMajorAxis_m,gast_rad,eulerAngle_rad_Roll,eulerAngle_rad_Pitch,eulerAngle_rad_Yaw,eulerAngleWrtEi_rad_Roll,eulerAngleWrtEi_rad_Pitch,eulerAngleWrtEi_rad_Yaw,bodyAngularRateWrtEi_rad_s_Roll,bodyAngularRateWrtEi_rad_s_Pitch,bodyAngularRateWrtEi_rad_s_Yaw,altitudeMsl_m,airDensity_kg_m3,ambientTemperature_dgK,eiGravitation_m_s2_X,eiGravitation_m_s2_Y,eiGravitation_m_s2_Z
0.0,-1436381.46541304,4185811.71030584,5163944.67156165,-4315967.74,960356.2,5167269.53,129.091037,-7491.513855,1452.515654,5.46941406307194,-1.21701154072591,-6.5482272078957,6759053.07578957,1.02331944621101,-0.0,-0.202458193231342,-0.0,-2.47159390556423,-0.0371889647578404,-1.42899313520437,0.0,-0.0011222300308759,0.0,434989.540811728,1.6157E-12,978.026450176724,5.46941408349186,-1.21701227670639,-6.54822705894005
60.0,-1794950.03358912,3943126.03101204,5239239.62015492,-4298383.75502538,509016.72687636,5242568.0141722,456.873451143473,-7547.42168968323,1056.41305185848,5.45257919151146,-0.645696384339918,-6.65029453506422,6759052.99690622,1.02769471546425,-2.4296E-12,-0.202436059837379,-6.67E-11,-2.47204519440808,0.0156059020283289,-1.38719418368879,0.0,-0.0011222300308759,0.0,433093.864942768,1.7266E-12,985.077038097059,5.45257924218851,-0.645697126425261,-6.65029442669387
120.0,-2147547.16734944,3685627.21759097,5290617.5988323,-4261177.84194978,55353.973895416,5293934.33440218,782.910107057739,-7568.91562531527,655.073363717549,5.41122597114578,-0.0702926990688841,-6.72271300010685,6759052.91793828,1.0320699847175,-8.7632E-12,-0.20236718956094,-1.115396E-10,-2.4702868220478,0.0683734663492738,-1.34532626635134,0.0,-0.0011222300308759,0.0,430905.280344723,1.8592E-12,992.842921467593,5.41122605190459,-0.0702934439090195,-6.72271293288274
180.0,-2492684.24237486,3414408.91185195,5317817.99756922,-4204498.85053043,-398561.351061971,5321107.91754095,1105.73159106064,-7555.82470748296,250.289432834902,5.34542727351219,0.506715298304944,-6.7650383779605,6759052.83887818,1.03644525395931,-1.75371E-11,-0.202248028498185,-1.343905E-10,-2.46629730751523,0.12102070149968,-1.30315482430808,0.0,-0.0011222300308759,0.0,428429.878003495,2.0161E-12,1001.27539089413,5.34542738404713,0.50671455408308,-6.76503835226522
240.0,-2828892.47555297,3130615.65480373,5320688.43749896,-4128583.60406353,-850652.773512059,5323936.4898965,1423.87587143469,-7508.12796769565,-156.122790657984,5.25535655638844,1.08281368000772,-6.77694529157947,6759052.75971869,1.04082052320969,-2.72623E-11,-0.202075237342516,-1.353269E-10,-2.46002784010144,0.173452091771071,-1.26044066321393,0.0,-0.0011222300308759,0.0,425676.592351414,2.2E-12,1010.28929667424,5.25535669626224,1.08281293978653,-6.77694530761449
300.0,-3154729.01597767,2835438.43892347,5299185.94130993,-4033756.27449623,-1298847.09993831,5302377.24748977,1735.89437875198,-7425.95595153964,-562.331491662885,5.14128932845043,1.65546737455955,-6.75823088058892,6759052.68045307,1.04519579246293,-3.64405E-11,-0.20184570701243,-1.146161E-10,-2.45140153205805,0.225567630798527,-1.21693635378426,0.0,-0.0011222300308759,0.0,422657.215679798,2.4135E-12,1019.7673993112,5.14128949709492,1.65546664171694,-6.75823093837239
360.0,-3468783.04171422,2530110.08150554,5253377.66293152,-3920427.39023437,-1741083.54132553,5256497.58531605,2040.35816638814,-7309.59171755226,-966.496445847674,5.00360435038471,2.22212924461266,-6.70881825172436,6759052.60107489,1.04957106170188,-4.358E-11,-0.20155657355081,-7.27221E-11,-2.44031230013045,0.277260684707756,-1.1723826141693,0.0,-0.0011222300308759,0.0,419386.373951762,2.6593E-12,1029.57096993091,5.00360454710207,2.22212852250786,-6.70881835108954
420.0,-3769681.84012643,2215900.42993397,5183441.1641076,-3789092.47233545,-2175322.87997463,5186475.3732063,2335.8641340884,-7159.47127582279,-1366.77667454075,4.84278452785458,2.78024968595256,-6.6287596578087,6759052.52157831,1.05394633095227,-4.71938E-11,-0.201205232221081,-1.0284E-11,-2.42662344889344,0.328415660266569,-1.12650470862727,0.0,-0.0011222300308759,0.0,415881.463128026,2.9401E-12,1039.55380385178,4.84278475181912,2.78024897791189,-6.62875979840304
480.0,-4056096.84829272,1894111.41002409,5089664.22643436,-3640330.29588614,-2599556.6450411,5092598.76686112,2621.04129469646,-6976.18343494919,-1761.33828077753,4.65941744929712,3.32728674949147,-6.51823934710971,6759052.44195809,1.05832160020265,-4.58182E-11,-0.200789350723408,7.1853E-11,-2.41016608239322,0.378905419131066,-1.07900895141219,0.0,-0.0011222300308759,0.0,412162.545617117,3.2586E-12,1049.57563911702,4.65941769955752,3.32728605879381,-6.5182395283946
540.0,-4326749.62744508,1566071.93115083,4972444.1886266,-3474800.77464302,-3011816.26036034,4975265.54381878,2894.55706128169,-6760.46902615876,-2148.36244487011,4.45419551985446,3.86071677827245,-6.37757602072402,6759052.36220941,1.06269686945303,-3.80437E-11,-0.200306881452354,1.726837E-10,-2.39073755366846,0.428588383753805,-1.02957949034328,0.0,-0.0011222300308759,0.0,408252.206995997,3.6175E-12,1059.51175037807,4.4541957953366,3.8607161081347,-6.37757624197528
600.0,-4580417.74518518,1233132.66160039,4832286.80018764,-3293242.46846911,-3410182.12627227,4834981.95553047,3155.1235289488,-6513.21947419838,-2526.05355402529,4.22791564191942,4.37804554075954,-6.20722483229541,6759052.28232828,1.06707213870913,-2.25E-11,-0.199756072716269,2.910165E-10,-2.36810028788341,0.477305292218586,-0.977875673880646,0.0,-0.0011222300308759,0.0,404175.373716863,4.0196E-12,1069.25748216481,4.22791594142974,4.37804489432188,-6.20722509260454
660.0,-4815940.5372396,896660.689454565,4669804.58430436,-3096469.71473123,-3792792.59537444,4672361.08836377,3401.5037226418,-6235.47468606539,-2892.64743651917,3.98147839289806,4.87681983013829,-6.00777886203927,6759052.20231128,1.0714474079538,2.0993E-12,-0.199135478837987,4.255017E-10,-2.34198150063523,0.524875583926551,-0.923530494777508,0.0,-0.0011222300308759,0.0,399959.093118201,4.4677E-12,1078.72838163761,3.9814787151275,4.87681921044951,-6.00777916031547
720.0,-5032224.71933679,558034.086092172,4485714.70468143,-2885369.38663265,-4157852.80045884,4488120.72824917,3632.51777931952,-5928.42023083101,-3246.41966681276,3.71588665194227,5.35463948714643,-5.77996999585078,6759052.12215566,1.07582267720419,3.69768E-11,-0.198443969056696,5.746396E-10,-2.31207459618586,0.571093444366587,-0.866150869914795,0.0,-0.0011222300308759,0.0,395632.277690872,4.9642E-12,1087.85756095802,3.71588699547082,5.35463889714923,-5.77997033082384
780.0,-5228249.8190811,218636.389298502,4280836.33316837,-2660897.28343856,-4503643.29136693,4283080.72582533,3847.04903004694,-5593.38378673448,-3585.69390383584,3.4322436296634,5.80916979128319,-5.52466914035633,6759052.04185936,1.08019794645171,8.32481E-11,-0.197680735151784,7.36788E-10,-2.27804338383753,0.615723617558486,-0.805320872515965,0.0,-0.0011222300308759,0.0,391225.416203785,5.5114E-12,1096.59194720185,3.43224399296526,5.80916923379963,-5.5246695105804
840.0,-5403073.39630824,-120148.973777961,4056087.51742166,-2424074.15970024,-4828528.43617467,4058159.86132923,4044.04994488412,-5231.83083542279,-3908.85022055442,3.131750258256,6.23815415232496,-5.24288570624163,6759051.96142109,1.08457321569067,1.419382E-10,-0.196845297711562,9.101679E-10,-2.23953068907121,0.658497225379113,-0.740609474166217,0.0,-0.0011222300308759,0.0,386770.254960757,6.1108E-12,1104.88858586088,3.13175063970533,6.23815363004209,-5.24288611009982
900.0,-5555836.0201472,-456944.303554183,3812481.55047579,-2175981.40288493,-5130964.54104285,3814372.21111074,4222.54790103256,-4845.35958768308,-4214.3333789589,2.81570190408015,6.63942702115068,-4.93576629515808,6759051.88084041,1.08894848494105,2.139482E-10,-0.19593751097265,1.0928937E-9,-2.196173409611,0.699108032028696,-0.67158483010693,0.0,-0.0011222300308759,0.0,382299.453126716,6.7632E-12,1112.71166517969,2.81570230195746,6.63942653660643,-4.93576673086805
960.0,-5685765.97033956,-790383.263248942,3551122.8469611,-1917756.37125571,-5409507.64228121,3552823.02051677,4381.6507325908,-4435.69513025658,-4500.66100085612,2.48548437058487,7.01092692622495,-4.60459253004925,6759051.80011752,1.09332375419143,3.000482E-10,-0.194957566160083,1.2829634E-9,-2.14762643769659,0.737209873135493,-0.597837514579657,0.0,-0.0011222300308759,0.0,377846.216711605,7.4679E-12,1120.0302923843,2.48548478308403,7.01092648179441,-4.60459299566974
1020.0,-5792183.63030485,-1119116.50810846,3273202.33378591,-1650587.40639828,-5662820.92372734,3274704.09097204,4520.55201854922,-4004.68278930862,-4766.43158141559,2.14256916649137,7.35070952999735,-4.25077797489597,6759051.71925345,1.09769902344753,4.008818E-10,-0.193905993263339,1.4782936E-9,-2.09359785573924,0.772416327370421,-0.519015100770587,0.0,-0.0011222300308759,0.0,373443.916415548,8.223E-12,1126.81715766932,2.14256959172725,7.35070912787953,-4.25077846833424
1080.0,-5874505.53954066,-1441817.28511166,2979992.36637431,-1375708.53743459,-5889681.71247225,2981288.69235929,4638.53606438924,-3554.28071281457,-5010.33228940556,1.78850802235114,7.65696058826186,-3.87586409766956,6759051.63825003,1.10207429269791,5.169427E-10,-0.192783661190026,1.6767313E-9,-2.03389693995749,0.804304094033324,-0.43486960893458,0.0,-0.0011222300308759,0.0,369125.695097985,9.0249E-12,1133.04775818994,1.7885084583678,7.65696023046703,-3.87586461668981
1140.0,-5932248.07350621,-1757186.97676792,2672841.1849906,-1094393.8966656,-6088988.00631669,2673926.01524341,4734.98253191231,-3086.55168144699,-5231.14649555646,1.42492664787515,7.92800868550701,-3.48151523968362,6759051.55710972,1.10644956193401,6.485754E-10,-0.191591776246726,1.8760576E-9,-1.96849415270044,0.832421822232592,-0.345316993749331,0.0,-0.0011222300308759,0.0,364924.071112165,9.8677E-12,1138.70004782534,1.42492709265461,7.92800837384473,-3.48151578191639
1200.0,-5965030.71997375,-2063960.56258827,2353166.92925246,-807951.869116372,-6259764.48715225,2354035.18105755,4809.37067177107,-2603.65416543016,-5427.76096860087,1.05351773268544,8.1623376107937,-3.06951256547414,6759051.47583588,1.11082483119011,7.959596E-10,-0.190331878905207,2.0740149E-9,-1.89758795589182,0.856306076248994,-0.25050349481431,0.0,-0.0011222300308759,0.0,360870.544123917,1.07433E-11,1143.75431631595,1.05351818415704,8.16233734686166,-3.06951312842661
1260.0,-5972578.92164279,-2360911.97182679,2022451.2325996,-517719.001176389,-6401167.97575623,2023098.83203569,4861.28311366292,-2107.8326531656,-5599.17267735182,0.676033204228514,8.35859823204465,-2.64174697971184,6759051.39443262,1.11520010044049,9.59106E-10,-0.189005838822503,2.2683112E-9,-1.82166713533876,0.875505392693571,-0.150867532462496,0.0,-0.0011222300308759,0.0,356995.21028296,1.16415E-11,1148.19312716876,0.676033660278721,8.35859801721844,-2.64174756077899
1320.0,-5954726.45731919,-2646859.29757906,1682232.42219698,-225053.696199166,-6512492.28529696,1682656.32639085,4890.40917032003,-1601.40728610617,-5744.49513677436,0.294275768327736,8.51561972211037,-2.20021101129327,6759051.31290465,1.11957536967945,1.1378651E-9,-0.187615848094391,2.4566545E-9,-1.74155113754674,0.889611721282009,-0.0471796437190514,0.0,-0.0011222300308759,0.0,353326.393718837,1.25494E-11,1152.00111313924,0.294276226810416,8.51561955753427,-2.20021160776999
1380.0,-5911417.33502087,-2920669.84538269,1334098.35346305,68670.2724962112,-6593172.43318068,1334296.56795165,4896.54761332224,-1086.76284323045,-5862.96423645141,-0.0899102299667914,8.63241998786102,-1.74698967946831,6759051.23125745,1.12395063893269,1.3319038E-9,-0.18616441273408,2.63676E-9,-1.65838836912129,0.898296021828842,0.0594595977067839,0.0,-0.0011222300308759,0.0,349890.301271675,1.34522E-11,1155.16509907554,-0.0899097712197076,8.63241987443991,-1.74699028856225
1440.0,-5842707.1729161,-3181264.98795725,979678.912071796,362070.398335701,-6642788.17373939,979650.503130163,4879.60888138992,-566.337127392319,-5953.94349119809,-0.474648575191302,8.70821515407252,-1.28425037239138,6759051.14949711,1.12832590818593,1.5407282E-9,-0.184654342381049,2.8063687E-9,-1.57359783702492,0.90134214126671,0.167678304848855,0.0,-0.0011222300308759,0.0,346710.707127664,1.43329E-11,1157.6749477972,-0.474648118358824,8.70821509246508,-1.28425099123655
1500.0,-5748764.04750906,-3427624.79655692,620638.219825793,653762.192764018,-6661066.81766151,620383.321644264,4839.6166851866,-42.6088146290768,-6016.92865588232,-0.858041517586313,8.74242795720091,-0.814231784536885,6759051.06763032,1.13270117743631,1.7636507E-9,-0.183088738258902,2.9632656E-9,-1.48875448812949,0.89867165379596,0.27594829126598,0.0,-0.0011222300308759,0.0,343808.673605181,1.51736E-11,1159.524090684,-0.858041064847139,8.74242794781408,-0.814232410207949
1560.0,-5629868.79060829,-3658792.42218565,258666.584178932,942366.013893753,-6647885.3079892,258186.400801009,4776.70897676472,481.915163966819,-6051.55164978311,-1.23818060218933,8.73469491039151,-0.339231975674004,6759050.98566449,1.13707644668384,1.999831E-9,-0.181470979415682,3.1052873E-9,-1.40543846448675,0.890353388948961,0.382736163904844,0.0,-0.0011222300308759,0.0,341202.313728813,1.59554E-11,1160.709710372,-1.23818015571042,8.73469495337642,-0.339232605201082
1620.0,-5486414.72065993,-3873878.19922393,-104527.765656518,1226513.93357087,-6603271.52692708,-105230.963694903,4691.13825659105,1004.71263015021,-6057.58374006423,-1.61315790524014,8.68487211029442,0.138404369807641,6759050.90360731,1.14145171592279,2.2482373E-9,-0.179804707294944,3.2303508E-9,-1.32508311261187,0.876595054569608,0.486655661784708,0.0,-0.0011222300308759,0.0,338906.600444109,1.66597E-11,1161.23268227028,-1.61315746716517,8.68487220554374,0.138403739423626
1680.0,-5318906.79787847,-4072063.44520088,-467227.110211051,1504856.60243437,-6527404.81259356,-468149.99456951,4583.27119654581,1523.25947112218,-6034.93793913929,-1.98107758184008,8.59303956842107,0.616299388865531,6759050.82146718,1.14582698517889,2.5076847E-9,-0.178093808701214,3.336469E-9,-1.24885711271871,0.857719239760861,0.586585879597361,0.0,-0.0011222300308759,0.0,336933.226383818,1.72689E-11,1161.097351272,-1.98107715427795,8.59303971556793,0.616298760637175
1740.0,-5127960.19584812,-4252603.93296987,-827712.7905263,1776070.07143013,-6420615.6701518,-828850.989072027,4453.58756333449,2035.0431651482,-5983.67057681035,-2.3400676196373,8.45950396477598,1.09205608206132,6759050.73925269,1.15020225442927,2.7768241E-9,-0.176342397238548,3.4217469E-9,-1.17760219101806,0.834129904159382,0.681733918249246,0.0,-0.0011222300308759,0.0,335290.517017539,1.77674E-11,1160.31121767294,-2.34006720465062,8.45950416319444,1.09205545899879
1800.0,-4914298.28825819,-4414833.01084742,-1184273.82770779,2038862.5274995,-6283384.66743359,-1185621.94381595,4302.67843330395,2537.57642289847,-5903.98201501021,-2.68829168563789,8.28479973912375,1.56327282975557,6759050.65697299,1.15457752367966,3.0541518E-9,-0.174554793315904,3.4844317E-9,-1.11182802207591,0.806276688012864,0.771640360705789,0.0,-0.0011222300308759,0.0,333983.398837912,1.81424E-11,1158.88460523301,-2.68829128523174,8.28479998793088,1.56327221485053
1860.0,-4678750.05180736,-4558164.35126045,-1535215.55907702,2291980.90082998,-6116340.51114608,-1536767.19615075,4131.24369661468,3028.41084272391,-5796.2164806797,-3.0239609473193,8.06968845524487,2.02755824820637,6759050.57463746,1.15895279293004,3.338025E-9,-0.172735502827433,3.5228889E-9,-1.05175040534472,0.774623067764722,0.856141494719548,0.0,-0.0011222300308759,0.0,333013.422988394,1.83844E-11,1156.83037890653,-3.02396056343016,8.06968875330439,2.02755764441587
1920.0,-4422246.89247105,-4682094.30847538,-1878868.23751739,2534217.30114856,-5920257.30596361,-1880616.02862545,3940.0888559805,3505.1504748529,-5660.86100065386,-3.3453457452532,7.81515639552133,2.48254624186198,6759050.49225577,1.16332806216899,3.6266646E-9,-0.170889194629656,3.5356518E-9,-0.997352736796528,0.739621767094906,0.935308267672067,0.0,-0.0011222300308759,0.0,332378.843467421,1.84882E-11,1154.16376864812,-3.34534537973832,7.81515674144889,2.4825456520925
1980.0,-4145818.90660869,-4786203.86925674,-2213595.53990387,2764415.24107398,-5696051.00516942,-2215531.18240095,3730.12113262029,3965.46518763513,-5498.5434312874,-3.65078699260429,7.52241036676618,2.92591110076806,6759050.40983765,1.16770333142223,3.9181695E-9,-0.169020676950067,3.5213912E-9,-0.948452948061588,0.701698275210321,1.00937980788817,0.0,-0.0011222300308759,0.0,332074.747787884,1.84526E-11,1150.90233935204,-3.65078664723145,7.52241075893613,2.92591052785973
2040.0,-3850590.59203849,-4870160.18396877,-2537802.93034537,2981475.60552687,-5444775.06794483,-2539917.22530757,3502.34489954417,4407.10372854893,-5310.02958477186,-3.93870717726706,7.19287172287008,3.35538248719324,6759050.32739307,1.17207860067547,4.2105119E-9,-0.167134872873507,3.4789801E-9,-0.904764166288559,0.661241595862606,1.0787032667268,0.0,-0.0011222300308759,0.0,332093.236776106,1.82808E-11,1147.06612717066,-3.93870685370481,7.19287215942384,3.35538193390449
2100.0,-3537776.03073597,-4933717.66672559,-2849945.82436677,3184362.3276266,-5167615.34481493,-2852228.72064312,3257.85646968117,4827.90637377866,-5096.21946352725,-4.20762084509921,6.82816863506229,3.76876015350263,6759050.24493192,1.17645386991157,4.5015902E-9,-0.165236795062535,3.4074564E-9,-0.865943568733983,0.618600566254632,1.14368551589143,0.0,-0.0011222300308759,0.0,332423.649095991,1.798E-11,1142.67794151977,-4.20762054490779,6.82816911391807,3.76875962249522
2160.0,-3208673.56770238,-4976718.65803694,-3148537.50112415,3372107.73337024,-4865884.21906129,-3150978.14377455,2997.83827350986,5225.81706277419,-4858.14262352009,-4.45614444769887,6.43012666580083,4.16392823408939,6759050.16246433,1.1808291391591,4.7892129E-9,-0.16333151987682,3.3060578E-9,-0.831628391105232,0.574083990424427,1.2047577505117,0.0,-0.0011222300308759,0.0,333052.825119238,1.75607E-11,1137.76381215282,-4.45614417232174,6.4301271846648,4.16392772791415
2220.0,-2864660.01450285,-4999093.64657633,-3432156.71227689,3543817.51967436,-4541014.03801113,-3434743.4951381,2723.5524676409,5598.89491830878,-4596.95269669535,-4.68300544539104,6.00075772694775,4.53886895785656,6759050.08000007,1.18520440840948,5.0711213E-9,-0.161424161063173,3.1742215E-9,-0.801460521907291,0.527963099871423,1.26235157666594,0.0,-0.0011222300308759,0.0,333965.403956842,1.70366E-11,1132.35354311935,-4.68300519614714,6.00075828332647,4.53886847893972
2280.0,-2507184.41196709,-5000861.04865081,-3699454.93822325,3698675.33303912,-4194549.87392262,-3702175.56031744,2436.33402209107,5945.32505810357,-4313.92111173793,-4.88705056540227,5.54224752637094,4.89167563428043,6759049.99754898,1.18957967766558,5.3450031E-9,-0.159519843192838,3.0115898E-9,-0.775102065187421,0.480475238081555,1.31688421346132,0.0,-0.0011222300308759,0.0,335144.14684411,1.64232E-11,1126.48132015538,-4.88705034347911,5.54224811758495,4.89167518491083
2340.0,-2137761.38787924,-4982126.54909641,-3949163.2450156,3835946.91913169,-3828141.65962039,-3952004.77049102,2137.58333966179,6263.42861099796,-4010.43006093235,-5.06725312642826,5.05694162890294,5.22056477537286,6759049.91512068,1.1939549469131,5.6085173E-9,-0.157623675025523,2.8180326E-9,-0.752244307992972,0.43182802798837,1.36875038773097,0.0,-0.0011222300308759,0.0,336570.279640475,1.57375E-11,1120.18630330413,-5.06725293287575,5.05694225210144,5.22056435768997
2400.0,-1757964.15045192,-4943082.00952108,-4180098.69837632,3954983.81694358,-3443535.74901838,-4183047.61964759,1828.75846578408,6551.67185880094,-3687.96476880717,-5.22271935368834,4.54733027716438,5.52388722769256,6759049.83272456,1.19833021615206,5.8593082E-9,-0.155740722980411,2.5936213E-9,-0.732612172484441,0.38220356820847,1.41831885794459,0.0,-0.0011222300308759,0.0,338223.846974558,1.49968E-11,1113.51311941706,-5.2227191894136,4.54733092934087,5.52388684367553
2460.0,-1369417.16012794,-4884003.95384902,-4391170.2947928,4055226.5748059,-3042565.95712606,-4394212.59852797,1511.36695132404,6808.67443421096,-3348.10512538931,-5.35269362282826,4.01603213468255,5.80013820267737,6759049.75036974,1.2027054854053,6.0950268E-9,-0.153875984893309,2.3386596E-9,-0.715965760350194,0.331762408032719,1.46593197870658,0.0,-0.0011222300308759,0.0,340084.07052841,1.42183E-11,1106.51214646949,-5.35269348859121,4.01603281269125,5.80013785413504
2520.0,-973788.524805589,-4805251.64405898,-4581384.37362775,4136207.4693987,-2627144.13801007,-4584505.60921293,1186.95743408641,7033.21651537004,-2992.5167531227,-5.45656258634759,3.46577712762333,6.04796610964761,6759049.66806502,1.20708075465283,6.3133284E-9,-0.152034364235697,2.0536649E-9,-0.702100154233332,0.280647185724941,1.51190716295666,0.0,-0.0011222300308759,0.0,342129.704105148,1.34182E-11,1099.23945286981,-5.4565624827575,3.46577782819636,6.04796579820964
2580.0,-572782.166722581,-4707264.76174982,-4749849.4784833,4197552.71290816,-2199250.36242473,-4753034.82858133,857.11100705523,7224.24496853151,-2622.94158172257,-5.53385815223985,2.89938857201866,6.26618011349332,6759049.58581887,1.21145602389464,6.5119189E-9,-0.150220644966283,1.7393893E-9,-0.69084428134148,0.228985897808989,1.55653946163294,0.0,-0.0011222300308759,0.0,344339.378443872,1.26113E-11,1091.75622643951,-5.53385807975282,2.8993892917837,6.26617984060247
2640.0,-168129.808637654,-4590560.71473947,-4895780.64063997,4238984.13761276,-1760922.75939535,-4899014.99344898,523.432442740084,7380.87840176233,-2241.18800935543,-5.58425930086865,2.3197647804111,6.45375635788256,6759049.50363939,1.21583129314788,6.6885579E-9,-0.148439467178466,1.3967974E-9,-0.682059375567982,0.176894815150407,1.60010475273611,0.0,-0.0011222300308759,0.0,346691.929217623,1.18107E-11,1084.1275181066,-5.58425925978598,2.31976551590951,6.45375612478806
2700.0,238417.171100914,-4455731.58995548,-5018503.06218631,4260320.35135712,-1314247.08791099,-5021771.08499642,187.541343345043,7502.41110435716,-1849.12073150087,-5.60759274239364,1.72986034525365,6.60984281437547,6759049.42153412,1.22020656239826,6.8410769E-9,-0.146695303698304,1.0270786E-9,-0.675637384064731,0.124481087420281,1.64286322554053,0.0,-0.0011222300308759,0.0,349166.702249341,1.10275E-11,1076.42016829683,-5.60759273286111,1.72986109295891,6.60984262212762
2760.0,645095.964142551,-4303440.77635951,-5117455.18139293,4261477.36154095,-861346.106047351,-5120741.39503482,-148.936714140531,7588.31585849385,-1448.6503206337,-5.60383243293825,1.13266729619669,6.73376273764587,6759049.33951043,1.22458183164864,6.9674032E-9,-0.144992437777144,6.31628E-10,-0.671499534654954,0.0718450898757015,1.6850629784742,0.0,-0.0011222300308759,0.0,351743.830684771,1.02706E-11,1068.69991995761,-5.60383245494631,1.13266805253297,6.7337625870918
2820.0,1050140.58954277,-4134419.28384047,-5192191.10789306,4242468.66935526,-404368.805295448,-5195479.9616709,-484.37897038022,7638.24562139211,-1041.72264046198,-5.57309798281648,0.531196324659378,6.82501672664769,6759049.25757486,1.22895710090188,7.0655544E-9,-0.143334942011236,2.12064E-10,-0.669595195020969,0.0190825712130007,1.72694363719356,0.0,-0.0011222300308759,0.0,354404.479645163,9.5468E-12,1061.02796966162,-5.57309803620127,0.531197086020139,6.8250166184283
2880.0,1451790.13376654,-3949461.78553196,-5242382.42024234,4203404.83998193,54520.422368274,-5245658.3669456,-817.174148535334,7652.03408764603,-630.30817789127,-5.51565200419139,-0.0715417379894113,6.88328341058935,6759049.17573368,1.23333237013798,7.1336879E-9,-0.141726658607739,-2.298034E-10,-0.669901099476331,-0.0337133377077282,1.76873995557692,0.0,-0.0011222300308759,0.0,357131.054723048,8.8609E-12,1053.45751762134,-5.51565208863664,-0.0715409752228562,6.88328334513744
2940.0,1848296.92512214,-3749422.41267257,-5267819.32337203,4144492.55828679,513152.618044826,-5271066.89396542,-1145.73092962496,7629.69515229005,-216.391374207195,-5.43189645825339,-0.672554012455706,6.90841879659508,6759049.09399264,1.23770763938837,7.1700844E-9,-0.140171181102582,-6.919643E-10,-0.672420983678877,-0.0864501949295728,1.81068539611183,0.0,-0.0011222300308759,0.0,359907.371557639,8.2157E-12,1046.0311033315,-5.43189657329311,-0.672553251895852,6.90841877413459
3000.0,2237934.59754295,-3535210.33166286,-5268411.16826038,4066033.18313512,969365.02502623,-5271615.04585893,-1468.48618045792,7571.42130535631,198.039965751234,-5.32236807314895,-1.26888307043449,6.90045433257744,6759049.01235684,1.24208290863875,7.1731867E-9,-0.138671837621111,-1.1722145E-9,-0.677185643697231,-0.139034339584327,1.85301570355693,0.0,-0.0011222300308759,0.0,362718.784614256,7.6125E-12,1038.7794685075,-5.32236821817087,-1.26888231566959,6.90045435312388
3060.0,2619005.99823761,-3307785.13436257,-5244186.34076479,3968420.81680096,1421011.73050814,-5247331.43351148,-1783.91288075806,7477.58099803471,611.00511132494,-5.18773291328511,-1.85762369229515,6.85959375381637,6759048.930831,1.2464581778777,7.1415976E-9,-0.137231675757458,-1.6681794E-9,-0.68425341688471,-0.191368946745571,1.89597249013494,0.0,-0.0011222300308759,0.0,365552.274175164,7.0513E-12,1031.72229116718,-5.18773308753488,-1.85762294687153,6.85959381717826
3120.0,2989850.89808224,-3068152.07257856,-5195291.53092965,3852139.9089939,1865974.11961319,-5198363.04340615,-2090.52770117698,7348.71502892944,1020.54062008323,-5.0287801881581,-2.43593875250918,6.78620879478712,6759048.84941921,1.25083344713094,7.0740958E-9,-0.135853449133308,-2.1773302E-9,-0.693711062268095,-0.243351986118898,1.93980684271281,0.0,-0.0011222300308759,0.0,368396.491411488,6.5311E-12,1024.87053309493,-5.02878039074413,-2.4359380199141,6.78620890056858
3180.0,3348853.46583514,-2817357.16741366,-5121990.39816441,3717762.41776381,2302171.08457133,-5124973.9009802,-2386.89818935466,7185.53200621859,1424.71026282755,-4.84641539443563,-3.00107412030548,6.68083385871641,6759048.76812502,1.25520871638133,6.9696462E-9,-0.134539605681628,-2.6969667E-9,-0.705674991732336,-0.29487402504251,1.98478294093244,0.0,-0.0011222300308759,0.0,371241.762234726,6.0505E-12,1018.22965415556,-4.84641562433459,-3.0010734039505,6.68083400632067
3240.0,3694449.46902226,-2556482.22488919,-5024661.65143387,3565944.55194248,2727568.93544262,-5027543.14865656,-2671.64952693044,6988.90294769355,1821.61460001186,-4.64165288864766,-3.55037248250192,6.54415974605092,6759048.68695147,1.25958398563171,6.8274149E-9,-0.13329227768601,-3.2242608E-9,-0.720292763285782,-0.34581581606222,2.03118163602426,0.0,-0.0011222300308759,0.0,374080.05141006,5.6072E-12,1011.80281533267,-4.64165314471055,-3.55037178570692,6.54415993468483
3300.0,4025133.16906804,-2286639.78742394,-4903796.56698699,3397423.12183092,3140190.96264234,-4906562.56109542,-2943.47082630896,6759.85508564087,2209.40015631616,-4.41560798954352,-4.08128601540381,6.37702654943759,6759048.60590102,1.26395925488209,6.6467698E-9,-0.132113273591808,-3.7562686E-9,-0.73774468535195,-0.396045611154824,2.07930387610962,0.0,-0.0011222300308759,0.0,376904.889142224,5.1993E-12,1005.59341231471,-4.41560827050229,-4.08128534138174,6.37702677811705
3360.0,4339463.88034741,-2008968.05067109,-4759995.96914838,3213011.52653399,3538126.60566544,-4762633.52321043,-3201.12094193357,6499.56494731656,2586.26814670054,-4.16948870903677,-4.59138785262502,6.18041582694452,6759048.52497567,1.26833452412105,6.4272903E-9,-0.131004071591522,-4.2899265E-9,-0.758245284877159,-0.445416151127975,2.12947376484071,0.0,-0.0011222300308759,0.0,379711.263010466,4.8243E-12,999.606653732076,-4.16948901351141,-4.59138720446737,6.18041609450072
3420.0,4636072.16646198,-1724625.7741041,-4593966.70229321,3013595.40768201,3919540.18673626,-4596463.49909186,-3443.43377670793,6209.35078436049,2950.4827140392,-3.90458720880276,-5.07838231525402,5.95544216715322,6759048.44417693,1.27270979337429,6.1687811E-9,-0.129965814973833,-4.8220895E-9,-0.78204424740676,-0.493761294091219,2.18204089227361,0.0,-0.0011222300308759,0.0,382495.478725037,4.48E-12,993.850217825247,-3.90458753530885,-5.07838169591717,5.95544247223976
3480.0,4913665.6508354,-1434787.2113582,-4406517.62431451,2800128.00026721,4282679.17255931,-4408862.02216823,-3669.32306993501,5890.66442594567,3300.37864525542,-3.62227107617412,-5.54011388957034,5.7033442595398,6759048.36350564,1.27708506262181,5.8712594E-9,-0.128999309213741,-5.3495195E-9,-0.80942622685008,-0.540892277825619,2.23738136302071,0.0,-0.0011222300308759,0.0,385254.993697125,4.1642E-12,988.334196756764,-3.6222714231307,-5.54011330186267,5.70334460064046
3540.0,5171034.42110062,-1140637.08680266,-4198555.1536729,2573625.21197544,4625881.9318506,-4200736.23871969,-3877.78665862377,5545.08263080858,3634.36853962706,-3.3239745081767,-5.97457495517988,5.42547558138584,6759048.28296215,1.28146033186077,5.5349854E-9,-0.128105020770159,-5.868943E-9,-0.840708629415237,-0.586593667267027,2.29589665020645,0.0,-0.0011222300308759,0.0,387988.227852835,3.8748E-12,983.07058190255,-3.32397487391457,-5.9745744017499,5.42547595682313
3600.0,5407056.01109146,-843365.641135068,-3971078.40350027,2335160.46272548,4947584.96082218,-3973086.03823824,-4067.91020917035,5174.29801263856,3950.9494094978,-3.0111894865638,-6.37991228269899,5.12329480851038,6759048.20254648,1.28583560110829,5.160431E-9,-0.127283077547627,-6.3770436E-9,-0.876236091451201,-0.630619133920394,2.35800901598008,0.0,-0.0011222300308759,0.0,390694.356473947,3.6098E-12,978.072510381056,-3.01118986933403,-6.3799117660243,5.12329521645464
3660.0,5620699.94684163,-544163.767815234,-3725173.937224,2085859.31616312,5246329.55321832,-3726998.80512523,-4238.87042118733,4780.10961170948,4248.70869990723,-2.68545701975276,-6.7544323347486,4.79835605160553,6759048.12225803,1.29021087036154,4.7483037E-9,-0.126533270969942,-6.8704808E-9,-0.916369911527124,-0.672687366096196,2.42415177721563,0.0,-0.0011222300308759,0.0,393373.090110129,3.3672E-12,973.353432665541,-2.6854574177355,-6.75443185712585,4.79835649008465
3720.0,5811031.84606948,-244218.260793523,-3462010.18080879,1826893.93461876,5520767.89580578,-3463643.82684709,-4389.93770958161,4364.41318321665,4526.3297195617,-2.34835851986034,-7.09660541685017,4.45229901312475,6759048.04209565,1.29458613960906,4.2995452E-9,-0.1258550596062,-7.3459219E-9,-0.961470237110089,-0.712478635094879,2.49475223266762,0.0,-0.0011222300308759,0.0,396024.446776277,3.1452E-12,968.926301527544,-2.34835893117373,-7.09660498038604,4.45229948003438
3780.0,5977217.06374098,55292.8085177865,-3182831.52700179,1559477.38855283,5769668.57435731,-3184266.39395839,-4520.47837482726,3929.19126964969,4782.59648103251,-2.00150737478972,-7.40506873573292,4.08683915175955,6759047.9620579,1.29896140886516,3.8153271E-9,-0.125247574283421,-7.8000462E-9,-1.01186852629559,-0.749632852328495,2.5702047858661,0.0,-0.0011222300308759,0.0,398648.521720636,2.9423E-12,964.802836495553,-2.00150779749908,-7.40506834233601,4.08683964487379
3840.0,6118523.87890941,353204.56968939,-2888952.16694164,1284857.85081447,5991921.47909894,-2890181.6273764,-4629.9562747215,3476.50312080216,5016.39795303004,-1.64654076674966,-7.67862843150414,3.70375793279081,6759047.8821427,1.30333667810126,3.2970282E-9,-0.124709624614854,-8.2295834E-9,-1.0678280504324,-0.783750328974919,2.65083204163611,0.0,-0.0011222300308759,0.0,401245.260024424,2.7569E-12,960.99288661042,-1.64654119887666,-7.67862808287793,3.70375844977324
3900.0,6234326.2204923,648369.671358573,-2581749.68418765,1004312.70515382,6186542.10228293,-2582768.06798553,-4717.93401373335,3008.4745208144,5226.73173202322,-1.28511177988108,-7.91626065708914,3.3048932332609,6759047.80234764,1.30771194735164,2.7462676E-9,-0.124239706869183,-8.6313192E-9,-1.12949151109671,-0.814396819756921,2.73683296022074,0.0,-0.0011222300308759,0.0,403814.237171161,2.5876E-12,957.503895238243,-1.28511221941302,-7.91626035472597,3.304893771676
3960.0,6324105.93195205,939662.429038194,-2262658.44566984,719142.597390191,6352675.22397697,-2263461.0630948,-4784.07366835499,2527.28757708104,5412.70714431936,-0.918881831011774,-8.1171117833507,2.89212996121227,6759047.72266978,1.31208721660202,2.1648702E-9,-0.123836013103051,-9.0021263E-9,-1.19681784475794,-0.841114629553798,2.82822015159297,0.0,-0.0011222300308759,0.0,406354.452504527,2.4331E-12,954.340460355809,-0.918882275910895,-8.11711152852672,2.8921305185371
4020.0,6387454.576923,1225982.79000683,-1933162.82329544,430665.456477996,6489597.98530653,-1933745.98350482,-4828.13706865235,2035.17052104773,5573.54779298023,-0.549513449116038,-8.28049781141522,2.46739093839675,6759047.64310578,1.31646248583812,1.554879E-9,-0.123496441477456,-9.3389768E-9,-1.26951533539914,-0.863441309578601,2.92475343839384,0.0,-0.0011222300308759,0.0,408864.140182614,2.2921E-12,951.503978853843,-0.549513897328765,-8.28049760518641,2.46739151203282
4080.0,6424074.78970277,1506260.10762932,-1594790.27900109,140210.511458853,6596722.35124149,-1595151.30399408,-4849.98565750101,1534.3875659811,5708.59356661938,-0.178663420966804,-8.40590307507187,2.03262808607458,6759047.56365195,1.3208377550885,9.185313E-10,-0.123218607677768,-9.6389543E-9,-1.34698461078544,-0.880936440031098,3.0258832704839,0.0,-0.0011222300308759,0.0,411340.601837398,2.1636E-12,948.992361558024,-0.178663870432954,-8.40590291827103,2.03262867335994
4140.0,6433781.17579977,1779456.71899547,-1249104.34495413,-150887.671027275,6673596.96757293,-1249241.5789471,-4849.57994981221,1027.22886182552,5817.30212921516,0.192023687145259,-8.4929783157985,1.58981394397664,6759047.48430402,1.32521302433889,2.582558E-10,-0.122999857357026,-9.8992964E-9,-1.42829053635188,-0.893215002224432,3.13072301165977,0.0,-0.0011222300308759,0.0,413780.064669668,2.0465E-12,946.799805208222,0.192023238483391,-8.49297820903323,1.58981454219804
4200.0,6416500.76963743,2044571.31876997,-897697.529409609,-441295.105350956,6719908.41898676,-897610.34364964,-4826.97861443131,516.00058235435,5899.24991160151,0.560921628789304,-8.54153821114881,1.14093354334679,6759047.40505747,1.32958829359213,-4.233241E-10,-0.122837279522942,-1.01173948E-8,-1.5121822731229,-0.899983160543951,-3.04511593621487,0.0,-0.0011222300308759,0.0,416177.568162316,1.94E-12,944.916607460626,0.560921182977985,-8.54153815480052,1.14093414975188
4260.0,6372273.0570844,2300642.12682266,-542184.177459067,-729684.239663377,6735481.89710769,-541872.970504477,-4782.33720136703,3.01517506787749,5954.13262629148,0.926428201415046,-8.55155843407942,0.687976646354743,6759047.32590743,1.33396356284251,-1.1234132E-9,-0.122727720790343,-1.02908221E-8,-1.59717197381131,-0.90106987197157,-2.93670384884979,0.0,-0.0011222300308759,0.0,418526.881987114,1.8433E-12,943.329010310939,0.926427760480328,-8.55155842830325,0.687977258164302
4320.0,6301249.57181172,2546749.84631504,-184193.314591468,-1014739.72221838,6720281.28907847,-183659.508104511,-4715.90653662262,-509.41820024021,5981.76532778301,1.28697060423295,-8.52317231646085,0.232930356176249,6759047.24684839,1.33833883208147,-1.8390606E-9,-0.12266780042259,-1.04173438E-8,-1.68166505609305,-0.896447043017631,-2.82877389835283,0.0,-0.0011222300308759,0.0,420820.457030014,1.7555E-12,942.019137916327,1.2869701701721,-8.52317236118657,0.232930970596367
4380.0,6203693.07513328,2782020.41088034,174638.50034456,-1295164.0619538,6674408.69866561,175392.470232135,-4628.03080619637,-1019.00302256502,5982.08204053218,1.64101044408475,-8.45666718468486,-0.222227905229964,6759047.16787479,1.34271410133185,-2.5671515E-9,-0.122653926087887,-1.04949352E-8,-1.76411567120849,-0.886232965669857,-2.72282510839837,0.0,-0.0011222300308759,0.0,423049.410778897,1.6761E-12,940.973121381083,1.6410100188579,-8.45666727961864,-0.222227290995824
4440.0,6079976.32917439,3005627.52135293,532674.287508922,-1569683.16530556,6598103.41306417,533644.983182203,-4519.14534984245,-1523.46453263238,5955.13497640261,1.9870484075722,-8.35248042912334,-0.675537061096381,6759047.08898055,1.34708937058509,-3.3044334E-9,-0.122682310258871,-1.05218099E-8,-1.84317052155382,-0.870678089088003,-2.62016349474791,0.0,-0.0011222300308759,0.0,425203.547621313,1.6046E-12,940.187948207539,1.98704799309427,-8.35248057375042,-0.675536449835454
4500.0,5930580.47444124,3216794.97138741,888283.699787457,-1837051.73242822,6491740.32953568,889466.699397719,-4389.77418398303,-2020.55861341513,5901.09336265953,2.32362862106037,-8.21119536237252,-1.12505870065821,6759047.01015914,1.35146463983547,-4.0475321E-9,-0.122748987186676,-1.04964199E-8,-1.91776909584021,-0.850136948458757,-2.52180147441151,0.0,-0.0011222300308759,0.0,427271.413906888,1.5406E-12,939.657722039837,2.32362821919331,-8.21119555596074,-1.12505809513669
4560.0,5756093.02240082,3414798.76412479,1239849.99511048,-2096058.49711886,6355827.85677517,1241239.91398586,-4240.52727178466,-2508.08041701697,5820.2419005242,2.64934272273629,-8.03353691390091,-1.5688830766568,6759046.93140393,1.35583990908586,-4.7929545E-9,-0.122849830383605,-1.04174735E-8,-1.98718556628101,-0.825033102458864,-2.42841560096889,0.0,-0.0011222300308759,0.0,429240.386951704,1.4838E-12,939.372228809432,2.64934233528155,-8.03353715550501,-1.56888247960833
4620.0,5557205.47408097,3598969.02188732,1585776.90578626,-2345531.29577702,6191005.30649406,1587367.42189011,-4072.09755690342,-2983.87272934573,5712.97887299209,2.96283367269799,-7.82036720105877,-2.00513480327346,6759046.85270788,1.36021517832195,-5.5371181E-9,-0.122980570551354,-1.0283948E-8,-2.05101696053448,-0.795824203051893,-2.34035800786376,0.0,-0.0011222300308759,0.0,431096.796516134,1.4338E-12,939.316963286285,2.96283330138939,-7.82036748952549,-2.00513421738787
4680.0,5334710.5762499,3768691.6907264,1924495.38434028,-2584341.95167613,5998039.7911543,1926279.26765207,-3885.25777580954,-3445.83406616034,5579.81391910004,3.26279932809508,-7.57268100854253,-2.4319782812281,6759046.7740636,1.36459044757234,-6.2763555E-9,-0.123136813894635,-1.00950991E-8,-2.10913471816501,-0.76297239657394,-2.2577044440694,0.0,-0.0011222300308759,0.0,432826.076687971,1.3902E-12,939.472494131565,3.262798974592,-7.57268134251644,-2.43197770914049
4740.0,5089499.22554061,3923410.04403071,2254470.20633171,-2811410.961668,5777822.64412016,2256439.35201507,-3680.85706196835,-3891.92649576302,5421.36549015498,3.5479958106699,-7.29160120047771,-2.8476228788935,6759046.69546355,1.36896571681986,-7.0069173E-9,-0.123314060762692,-9.8504941E-9,-2.16161960390336,-0.726922527686513,-2.18031892349548,0.0,-0.0011222300308759,0.0,434412.945557638,1.3529E-12,939.81086701986,3.5479954765508,-7.29160157840775,-2.84762232317357
4800.0,4822557.03270841,4062625.98668829,2574206.4114963,-3025711.97318881,5531365.37873904,2576351.87670821,-3459.81735351965,-4320.18318482182,5238.35800166471,3.81724069369462,-6.97837408140868,-3.25032789953062,6759046.61689979,1.37334098605596,-7.7250317E-9,-0.123507724563649,-9.5499696E-9,-2.20869593669395,-0.688088294298325,-2.10791902214426,0.0,-0.0011222300308759,0.0,435841.609592142,1.3214E-12,940.304322646278,3.81724038045098,-6.97837450155529,-3.25032736267244
4860.0,4534960.55761574,4185901.16411283,2882255.565334,-3226276.04008604,5259795.20304975,2884567.60952002,-3223.12961450586,-4728.7156645531,5031.61869288746,4.06941603429904,-6.63436471477301,-3.6384073651662,6759046.53836431,1.37771625531206,-8.4268732E-9,-0.123713150898879,-9.1936871E-9,-2.25067462690249,-0.646845110069897,-2.04013232282362,0.0,-0.0011222300308759,0.0,437095.989207005,1.2964E-12,941.011550474288,4.06941574332962,-6.63436517521593,-3.63840684957831
4920.0,4227873.22553483,4292857.87995622,3177221.82391933,-3412195.64634244,4964350.10697081,3179689.95243031,-2971.84987818379,-5115.72081478342,4802.0742040942,4.30347127558447,-6.26105220000332,-4.01023464724211,6759046.45984877,1.38209152455673,-9.1086085E-9,-0.123925636866386,-8.7821061E-9,-2.28790877446868,-0.603527920650212,-1.97654024581901,0.0,-0.0011222300308759,0.0,438159.96170119,1.278E-12,941.992582313678,4.30347100818999,-6.26105269864993,-4.01023415523798
4980.0,3902540.93730985,4383179.82419753,3457767.78526445,-3582628.48724299,4646373.53897342,3460380.79612155,-2707.09511955408,-5479.4875632654,4550.74687986049,4.51842604075935,-5.86002490232661,-4.36424697300061,6759046.38134469,1.38646679380997,-9.766404E-9,-0.124140450483704,-8.316022E-9,-2.32076181037777,-0.558432284164131,-1.91670927313945,0.0,-0.0011222300308759,0.0,439017.61746413,1.2668E-12,943.29633987307,4.5184257981375,-5.86002543692082,-4.36424650678961
5040.0,3560287.38281435,4456612.61682523,3722620.11101215,-3736800.99791984,4307308.68941534,3725366.14463832,-2430.03896298507,-5818.4032970644,4278.75080502094,4.71337283886129,-5.43297562271577,-4.69894983466845,6759046.30284351,1.39084206306035,-1.03964475E-8,-0.124352850181885,-7.796526E-9,-2.34958628449517,-0.511817356427778,-1.86021145185691,0.0,-0.0011222300308759,0.0,439653.525182557,1.2631E-12,944.967351292723,4.71337262210222,-5.43297619084742,-4.69894939634711
5100.0,3202509.07023673,4512964.16875441,3970574.9025867,-3874011.61952982,3948692.39792956,3973441.49431476,-2141.90722972674,-6130.95998189541,3987.28757836912,4.88747969849446,-4.98169668936561,-5.01292132590765,6759046.22433645,1.3952173322993,-1.09949763E-8,-0.124558104322864,-7.2250312E-9,-2.37471082650679,-0.463909808362295,-1.80663663667852,0.0,-0.0011222300308759,0.0,440053.001667169,1.2675E-12,947.048411230526,4.88747950857655,-4.9816972884803,-5.01292091745149
5160.0,2830670.08210751,4552104.86349806,4200502.81619303,-3993633.79357928,3572148.70254579,4203476.95135215,-1843.97332922837,-6415.75998400455,3677.64182781295,5.03999274245859,-4.50807494659711,-5.30481642675497,6759046.14581464,1.39959260154969,-1.15582729E-8,-0.124751510692613,-6.603266E-9,-2.39643293827761,-0.414908042555697,-1.7555987983571,0.0,-0.0011222300308759,0.0,440202.381879524,1.2806E-12,949.582252683692,5.03999258024469,-4.50807557400648,-5.30481605001067
5220.0,2446296.56934579,4573967.56244301,4411353.901241,-4095118.6751247,3179382.04859311,4414422.07261571,-1537.55349751755,-6671.52158759637,3351.17646953428,5.17023871222738,-4.01408661230831,-5.57337125442361,6759046.06726934,1.40396787080293,-1.2082707E-8,-0.124928415922384,-5.9332698E-9,-2.41501569647568,-0.364986333714939,-1.70673830173939,0.0,-0.0011222300308759,0.0,440089.284762891,1.3031E-12,952.612697643248,5.1702385784614,-4.01408726520076,-5.57337091110168
5280.0,2050970.99617189,4578547.43550027,4602162.14689592,-4177997.55575967,2772170.17590703,4605310.41434385,-1224.00188548584,-6897.08419895055,3009.32771278818,5.27762744700117,-3.50179197105676,-5.81740729293817,6759045.98869161,1.40834314003902,-1.25647512E-8,-0.125084234789535,-5.2173777E-9,-2.43068691717078,-0.314298696084716,-1.65972158179622,0.0,-0.0011222300308759,0.0,439702.870561482,1.336E-12,956.185248147125,5.27762734230505,-3.5017926465085,-5.81740698460604
5340.0,1646326.14827878,4565901.61950416,4772049.7215339,-4241883.98746353,2352356.70345681,4775263.77354082,-904.705499776661,-7091.41322629592,2653.59981134464,5.36165431756509,-2.97332986664307,-6.03583560967168,6759045.91007266,1.41271840928941,-1.30009892E-8,-0.125214469348504,-4.4582184E-9,-2.4436397514285,-0.262982395796315,-1.61423922575474,0.0,-0.0011222300308759,0.0,439034.085443724,1.3804E-12,960.346826372724,5.36165424243617,-2.97333056162959,-6.03583533774732
5400.0,1234038.91650977,4536148.706541,4920230.88992907,-4286475.5985512,1921843.43123103,4923496.10687219,-581.078999097138,-7253.6046222673,2285.5595622487,5.4219026104904,-2.43091195572991,-6.22766106151124,6759045.83140375,1.41709367853979,-1.33881414E-8,-0.125314727840856,-3.658734E-9,-2.45403400877071,-0.211161095556299,-1.57000313840719,0.0,-0.0011222300308759,0.0,438075.889420505,1.4378E-12,965.144193966811,5.4219025652992,-2.43091266713776,-6.22766082725714
5460.0,815823.871437794,4489468.06301624,5046015.59303911,-4311555.59314368,1482582.38008058,5049317.11192221,-254.559349187791,-7382.88907341578,1906.8305525819,5.45804585337871,-1.87681668263362,-6.39198648765675,6759045.75267623,1.42146894779017,-1.37230959E-8,-0.125380743331518,-2.8221208E-9,-2.46199774545597,-0.15894765832032,-1.52674322420157,0.0,-0.0011222300308759,0.0,436823.463764878,1.5098E-12,970.62050851375,5.45804583836708,-1.87681740727253,-6.39198629217449
5520.0,393426.64260927,4426098.98128241,5148812.6753047,-4316993.92579278,1036567.59122184,5152135.45572116,73.3996596107495,-7478.63581883465,1519.08715526696,5.46985006693874,-1.31338293502433,-6.52801688002839,6759045.67388164,1.4258442170377,-1.40029126E-8,-0.125408392016154,-1.9518444E-9,-2.46762882203645,-0.106446656936347,-1.48420384882451,0.0,-0.0011222300308759,0.0,435274.394388876,1.5984E-12,976.809632892983,5.46985008221839,-1.31338366963966,-6.52801672425364
5580.0,-31382.8812494087,4346339.66466892,5228132.74446171,-4302748.14315835,585826.708251375,5231461.6355345,401.333027254599,-7540.35607756052,1124.04827568596,5.45717592476626,-0.743003340913307,-6.63506351599693,6759045.59501185,1.43021948627666,-1.42248548E-8,-0.125393711142127,-1.0516161E-9,-2.47099624731994,-0.05375664596693,-1.44214022725442,0.0,-0.0011222300308759,0.0,433428.827914745,1.7058E-12,983.728355159495,5.45717597031775,-0.743004082198783,-6.63506340069494
5640.0,-456817.513975728,4250546.04686378,5283590.64900112,-4268863.88496973,132412.36581445,5286910.45704171,727.770285123945,-7567.70606207922,723.470851991139,5.41998079685355,-0.168117169040033,-6.71254803174369,6759045.51605887,1.4345947555299,-1.43864054E-8,-0.125332916482779,-1.253833E-10,-2.4721411995293,-9.722550902671E-4,-1.40031480944433,0.0,-0.0011222300308759,0.0,431289.597487058,1.8344E-12,991.36764853756,5.41998087252566,-0.168117913650791,-6.71254795750534
5700.0,-881079.87790747,4139130.44640716,5314907.55862838,-4215475.0369238,-321606.589503521,5318203.11524988,1051.24135556744,-7560.48955307202,319.143113483095,5.35832064815715,0.408797202369172,-6.76000640809369,6759045.43701498,1.43897002478028,-1.44852746E-8,-0.125222419302027,8.226748E-10,-2.47107766277147,0.0518138361923478,-1.35849368717507,0.0,-0.0011222300308759,0.0,428862.315711479,1.9869E-12,999.685234557033,5.35832075366664,0.408796457803265,-6.76000637533206
5760.0,-1302369.63332071,4012560.05702039,5321912.63338947,-4142803.52869437,-774154.018940813,5325168.86380302,1370.28252019493,-7518.6600085515,-87.1223966869275,5.27235175909854,0.985230279485242,-6.77709283425383,6759045.35787288,1.44334529401923,-1.45194373E-8,-0.125058842743249,1.7882079E-9,-2.46779264761457,0.104508983454506,-1.31644301801337,0.0,-0.0011222300308759,0.0,426155.432471223,2.1659E-12,1008.60233075001,5.27235189403043,0.985229538345998,-6.77709284320129
5820.0,-1718890.8107641,3871355.27463582,5304544.26757249,-4051158.77087058,-1223155.52319276,5307746.25878983,1683.44248513662,-7442.32217882437,-493.496025970819,5.16233223074511,1.55864993523744,-6.763583408634,6759045.27862574,1.44772056326676,-1.4487145E-8,-0.12483903757367,2.766686E-9,-2.46224598612697,0.157018663318342,-1.27392544961713,0.0,-0.0011222300308759,0.0,423180.25576802,2.3741E-12,1018.00679491295,5.16233239455336,1.55864920090451,-6.76358345933993
5880.0,-2128859.2235758,3716087.86182207,5262850.89508152,-3940936.72541761,-1666547.5553723,5265983.96374151,1989.28852913811,-7331.73319735328,-898.138432883662,5.0286232337204,2.12651039963849,-6.71937962995711,6759045.19926711,1.45209583251429,-1.43869322E-8,-0.124560097212598,3.75341E-9,-2.45436971032264,0.209244501985605,-1.2306965274089,0.0,-0.0011222300308759,0.0,419950.9341607,2.6142E-12,1027.76277453414,5.02862342572908,2.12650967547531,-6.71937972228624
5940.0,-2530509.93531358,3547378.95091509,5196991.34373467,-3812618.60517726,-2102286.58292889,5200041.10326665,2286.41271780596,-7187.30311664,-1299.20820934327,4.87168995672247,2.6862617700677,-6.64451162630252,6759045.11979106,1.45647110176467,-1.42176467E-8,-0.124219371969319,4.7435555E-9,-2.44406704429905,0.261082187264383,-1.18650108084227,0.0,-0.0011222300308759,0.0,416484.399832567,2.8888E-12,1037.72440063851,4.87169017612744,2.68626105940719,-6.64451175993386
6000.0,-2922104.75642169,3365896.88707234,5107234.72688334,-3666769.19900744,-2528358.26428776,5110187.15371627,2573.4381645912,-7009.59485778492,-1694.86968746755,4.69210220798772,3.2353600449056,-6.53914106471128,6759045.04019213,1.46084637101505,-1.39784575E-8,-0.123814482414195,5.7321831E-9,-2.43121107058204,0.312419204378758,-1.1410696104703,0.0,-0.0011222300308759,0.0,412800.271812088,3.2006E-12,1047.74958151668,4.69210245385879,3.23535935103575,-6.53914123913777
6060.0,-3301939.7417679,3172354.91312901,4993959.86189975,-3504034.82040997,-2942786.60409028,4996801.36042319,2849.02531624055,-6799.32354245825,-2083.30090983214,4.49053462122933,3.77127767427191,-6.40356367965393,6759044.96046558,1.46522164025686,-1.36688638E-8,-0.123343331804669,6.7142795E-9,-2.41564317774309,0.363132336113698,-1.09411474478204,0.0,-0.0011222300308759,0.0,408920.719399964,3.5524E-12,1057.71041105662,4.49053489251299,3.77127700042118,-6.40356389418282
6120.0,-3668352.65923306,2967508.69862278,4857654.20645136,-3325140.87892024,-3343643.04905779,4860371.67243204,3111.87823750311,-6557.35517670722,-2462.70173837941,4.26776641660698,4.2915146110261,-6.23821135516872,6759044.88060725,1.46959690949868,-1.32887201E-8,-0.122804117486581,7.6847675E-9,-2.39717146884318,0.413084870885244,-1.04532791036772,0.0,-0.0011222300308759,0.0,404870.286418438,3.947E-12,1067.49858185731,4.26776671212967,4.29151396034873,-6.23821160892264
6180.0,-4019730.39802188,2752153.7156955,4698912.30508814,-3130889.07513387,-3729055.48470381,4701493.18724533,3360.75086690738,-6284.70465737211,-2831.30207317771,4.02468066723667,4.7936098337646,-6.04365369295941,6759044.80061356,1.47397217874906,-1.28382435E-8,-0.122195341190411,8.6385432E-9,-2.37556942123042,0.462123471253142,-0.994376472985886,0.0,-0.0011222300308759,0.0,400675.677497457,4.3871E-12,1077.02618714215,4.02468098570861,4.79360920932594,-6.04365398487832
6240.0,-4354516.2833717,2527122.46552017,4518433.74051768,-2922154.22202582,-4097217.09142392,4520866.09996082,3594.45321247807,-5982.53307394076,-3187.37014811915,3.76226302272316,5.27515330144318,-5.82059899734674,6759044.72048161,1.47834744799087,-1.23180166E-8,-0.121515818142259,9.5704894E-9,-2.35057525339123,0.510074675203802,-0.94090177566458,0.0,-0.0011222300308759,0.0,396365.508238813,4.8752E-12,1086.2234468482,3.76226336274283,5.27515270620498,-5.82059932619064
6300.0,-4671217.26271039,2293281.56008631,4317020.58604103,-2699880.69717087,-4446395.01694253,4319293.15327522,3811.85745340723,-5652.14428146947,-3529.22086648713,3.48159984326167,5.73379828664669,-5.5698946078228,6759044.64020935,1.4827227172384,-1.1729E-8,-0.120764684910108,1.04755158E-8,-2.32189269165748,0.556741040894256,-0.884518740462148,0.0,-0.0011222300308759,0.0,391970.021750749,5.4138E-12,1095.03505941546,3.48160020332082,5.7337977234525,-5.56989497217532
6360.0,-4968410.92767634,2051528.66390825,4095574.35796894,-2465078.53259593,-4774938.82073661,4097676.58717726,4011.90391099769,-5294.98072376248,-3855.22413519923,3.1838757010734,6.16727402163246,-5.29252651118781,6759044.55979528,1.48709798648878,-1.10725391E-8,-0.119941405907846,1.13485812E-8,-2.28919415402687,0.601897013634929,-0.82481802817322,0.0,-0.0011222300308759,0.0,387520.774711228,6.0043E-12,1103.41645297231,3.18387607956272,6.16727349319325,-5.29252690946071
6420.0,-5244752.3342124,1802789.30261441,3855092.46942943,-2218819.15127052,-5081288.64493416,3857014.58974647,4193.60684972921,-4912.6184903441,-4163.81315252386,2.87037021035343,6.57339857833134,-4.9896181679582,6759044.47923882,1.49147325573631,-1.03503587E-8,-0.119045778482278,1.2184713E-8,-2.25212778266186,0.64528470679188,-0.761372167496456,0.0,-0.0011222300308759,0.0,383050.296785614,6.6478E-12,1111.33063631136,2.87037060556883,6.57339808721134,-4.98961859839677
6480.0,-5498980.58265557,1548013.54556585,3596664.1898025,-1962230.76165779,-5363983.06534695,3598397.25330056,4356.06006713102,-4506.76159586929,-4453.49260027019,2.54245415253815,6.95009189076935,-4.66242849200289,6759044.39854003,1.49584852498669,-9.5645747E-9,-0.118077936512363,1.29790548E-8,-2.21033022875957,0.68660996396631,-0.693747539913747,0.0,-0.0011222300308759,0.0,378591.727878691,7.3439E-12,1118.74589097864,2.54245456268768,6.95009143937223,-4.66242895269233
6540.0,-5729925.11890073,1288172.57071737,3321466.11706299,-1696493.42428267,-5621666.57578807,3323002.0431815,4498.44222935215,-4079.23547648041,-4722.84668795685,2.201584870533,7.29538881616476,-4.31234892824587,6759044.31769983,1.50022379422564,-8.7177005E-9,-0.117038352454922,1.37268687E-8,-2.16344751917117,0.725539324498509,-0.621524534499032,0.0,-0.0011222300308759,0.0,374178.43832387,8.0909E-12,1125.6342694465,2.20158529374436,7.29538840672034,-4.31234941711855
6600.0,-5936511.71703896,1024255.12209549,3030757.17355493,-1422833.80690392,-5853096.65868861,3032088.78971474,4620.02190797346,-3631.9797041896,-4970.54699337211,1.84930091354643,7.60745211957092,-3.94089958078841,6759044.23671996,1.50459906347603,-7.8126162E-9,-0.115927837777409,1.4423586E-8,-2.11116648256364,0.761698851106885,-0.544328337264744,0.0,-0.0011222300308759,0.0,369843.637681997,8.8854E-12,1131.97073796018,1.84930134787508,7.60745175412236,-3.94090009563218
6660.0,-6117768.10436993,757263.869526598,2725873.13913456,-1142519.64757108,-6057150.39530651,2726994.21729199,4720.16227277222,-3167.03992758696,-5195.36004134594,1.48721592327873,7.88458525669402,-3.54972435293391,6759044.15560272,1.50897433272355,-6.8525855E-9,-0.114747541725742,1.50648111E-8,-2.05325867240195,0.794676165023202,-0.46187228083006,0.0,-0.0011222300308759,0.0,365619.978316896,9.722E-12,1137.73276784717,1.48721636671657,7.88458493708575,-3.54972489140127
6720.0,-6272829.18931405,488211.684100098,2408220.73917103,-856853.947576021,-6232830.56954999,2409126.02808199,4798.32539489334,-2686.5590549687,-5396.15456055551,1.11701176231446,8.12524482074076,-3.14058507128462,6759044.07435135,1.51334960196536,-5.8412374E-9,-0.113498948383944,1.56463613E-8,-1.98963690421063,0.824027369037257,-0.374013861810901,0.0,-0.0011222300308759,0.0,361539.160310943,1.05931E-11,1142.90018688076,1.11701221279907,8.12524454860716,-3.14058563090289
6780.0,-6400941.85411315,218117.841726185,2079271.30854472,-567168.919033297,-6379271.22064882,2079956.5615268,4854.07611525673,-2192.7677042476,-5571.90835687424,0.740430896525439,8.32805251216512,-2.71535457821998,6759043.9929698,1.51772487121575,-4.7825545E-9,-0.112183871992204,1.61642886E-8,-1.92042083050487,0.849290618027287,-0.280819840467736,0.0,-0.0011222300308759,0.0,357631.544556167,1.14887E-11,1147.45511925777,0.740431351949848,8.32805228892017,-2.71535515640236
6840.0,-6501469.27502291,-51995.8308604094,1740554.05649198,-274819.714505545,-6495742.60162647,1741016.05449191,4887.08543408548,-1687.97395263391,-5721.71474122891,0.359268054933101,8.49180648528043,-2.2760087905069,6759043.91146268,1.52210014046327,-3.6808745E-9,-0.110804450500952,1.66149044E-8,-1.84600229841212,0.870007613278932,-0.18263115978018,0.0,-0.0011222300308759,0.0,353925.780987093,1.23963E-11,1151.38181443204,0.359268513155952,8.49180631210824,-2.27600938456436
6900.0,-6573894.73433639,-321108.851224265,1393648.96085913,18822.0313121252,-6581655.5027699,1393885.5306552,4897.13337920793,-1174.55242792547,-5844.78845022729,-0.0246387973987434,8.61549192316435,-1.82461773633931,6759043.82983532,1.52647540971366,-2.5408443E-9,-0.109363137350624,1.69947954E-8,-1.76709475097341,0.885752941326899,-0.0801119379063742,0.0,-0.0011222300308759,0.0,350448.458887859,1.33016E-11,1154.66661469199,-0.0246383385425749,8.61549180101095,-1.82461834349334
6960.0,-6617824.89075927,-588206.00184536,1040179.32400064,312374.815365616,-6636564.90207185,1040189.35139314,4884.11131329183,-654.932792172223,-5940.47099901387,-0.409418125504055,8.69829069234089,-1.36333559851375,6759043.74809373,1.53085067896118,-1.3674342E-9,-0.107862691479754,1.73008518E-8,-1.68474675269414,0.896168883908508,0.0257373917740218,0.0,-0.0011222300308759,0.0,347223.785997598,1.41878E-11,1157.29875985381,-0.409417668192519,8.69829062190715,-1.36333621590986
7020.0,-6632992.4770729,-852281.257943334,681804.026126966,604454.000693167,-6660172.90793265,681587.463995672,4848.02364341543,-131.587677319954,-6008.23540795216,-0.79317506940241,8.73958993156364,-0.894389807435413,6759043.66624456,1.53522594820014,-1.658798E-10,-0.106306165577894,1.75302928E-8,-1.60030225774512,0.90100059527837,0.133620180487741,0.0,-0.0011222300308759,0.0,344273.302745034,1.50371E-11,1159.27099525997,-0.793174615815069,8.73958991329955,-0.894390432157291
7080.0,-6619258.39708341,-1112341.70425385,320209.515321828,893678.634694632,-6652330.96324386,319767.386457093,4788.98890036222,392.979858978735,-6047.69024784002,-1.17400219539763,8.73898943477537,-0.420069243893931,6759043.58429505,1.53960121745052,1.0583115E-9,-0.104696892614201,1.76806661E-8,-1.51530238754908,0.900124562500357,0.242042142502341,0.0,-0.0011222300308759,0.0,341615.637365407,1.58308E-11,1160.57980408132,-1.17400174770426,8.73898946887567,-0.420069872978172
7140.0,-6576613.19712358,-1367411.42228225,-42898.4233530532,1178678.31253921,-6613041.28431438,-43564.0287099876,4707.24015971277,916.249281049734,-6058.5829524471,-1.54999066998869,8.69630769703944,0.0572883723027837,6759043.5022528,1.54397648670376,2.299388E-9,-0.103038470687529,1.77498911E-8,-1.43134273028483,0.893563437366592,0.349454404842998,0.0,-0.0011222300308759,0.0,339266.306897681,1.655E-11,1161.22538473524,-1.54999023033774,8.69630778344079,0.0572877418514111
7200.0,-6505177.89142438,-1616535.32734976,-405803.074322878,1458100.04551381,-6542457.51291001,-406689.006264252,4603.12478215839,1435.69584250565,-6040.80235220234,-1.91924176201821,8.61158650390939,0.535309816065831,6759043.42012614,1.54835175594557,3.5514164E-9,-0.101334746259064,1.77362504E-8,-1.34991762923107,0.881483265049363,0.454409566428832,0.0,-0.0011222300308759,0.0,337237.568142809,1.71771E-11,1161.21145078379,-1.91924133252529,8.61158664228895,0.53530918725876
7260.0,-6405204.12480143,-1858782.93586642,-766785.325596463,1730615.09293561,-6440884.56491565,-767887.387659334,4477.10345641168,1948.80408255359,-5994.3803888157,-2.27987856928658,8.48509395923256,1.01160030653265,6759043.33792373,1.5527270251931,4.808277E-9,-0.0995897958435616,1.7638421E-8,-1.27228841016143,0.86417387064224,0.555693821438793,0.0,-0.0011222300308759,0.0,335538.321606173,1.76959E-11,1160.54492739098,-2.27987815202297,8.48509414900823,1.0115996823816
7320.0,-6277073.6604306,-2093252.04340958,-1124132.28034502,1994925.71544634,-6308777.66474697,-1125445.24791941,4329.74853456183,2453.08145488213,-5919.49297742966,-2.63005785791514,8.31732586358229,1.48375795214801,6759043.25565449,1.55710229443491,6.0637079E-9,-0.0978079062505,1.7455471E-8,-1.19940253500238,0.842017545908814,0.65240816478827,0.0,-0.0011222300308759,0.0,334174.070283049,1.80931E-11,1159.23561768941,-2.63005745489646,8.31732610391452,1.48375733564894
7380.0,-6121297.18588436,-2319072.29213315,-1476145.89403341,2249771.80710219,-6146740.56056935,-1477663.53800412,4161.74165662201,2946.07198801569,-5816.45999047643,-2.96798189650524,8.10900537512642,1.94938855913243,6759043.17332781,1.56147756368529,7.3113396E-9,-0.0959935534807906,1.71868883E-8,-1.13187148462191,0.815453293051662,0.743990882124644,0.0,-0.0011222300308759,0.0,333146.933907102,1.83586E-11,1157.29590794195,-2.9679815096804,8.1090056649216,1.9493879532494
7440.0,-5938512.43498735,-2535408.60909528,-1821151.58386922,2493937.36369295,-5955522.92155912,-1822866.69939504,3973.87066823235,3425.36987257436,-5685.74434565928,-3.29191016282715,7.86108090642027,2.40612066111326,6759043.09095335,1.56585283293282,8.5447419E-9,-0.0941513803987433,1.68325682E-8,-1.06999740945776,0.784943272516963,0.830191291208153,0.0,-0.0011222300308759,0.0,332455.71801169,1.84865E-11,1154.74057023271,-3.29190979406758,7.86108124433567,2.40612006876246
