time,gePosition_m_X,gePosition_m_Y,gePosition_m_Z,eiPosition_m_X,eiPosition_m_Y,eiPosition_m_Z,eiVelocity_m_s_X,eiVelocity_m_s_Y,eiVelocity_m_s_Z,eiAccel_m_s2_X,eiAccel_m_s2_Y,eiAccel_m_s2_Z,semiMajorAxis_m,gast_rad,eulerAngle_rad_Roll,eulerAngle_rad_Pitch,eulerAngle_rad_Yaw,eulerAngleWrtEi_rad_Roll,eulerAngleWrtEi_rad_Pitch,eulerAngleWrtEi_rad_Yaw,bodyAngularRateWrtEi_rad_s_Roll,bodyAngularRateWrtEi_rad_s_Pitch,bodyAngularRateWrtEi_rad_s_Yaw,altitudeMsl_m,airDensity_kg_m3,ambientTemperature_dgK,eiGravitation_m_s2_X,eiGravitation_m_s2_Y,eiGravitation_m_s2_Z
0.0,-1436381.46529,4185811.71036,5163944.67155,-4315967.74,960356.2,5167269.53,129.091037,-7491.513855,1452.515654,5.46941408349,-1.21701227671,-6.54822705894,6759053.07579,1.02334780893,-5.666859310097427E-17,-0.2024581932313422,1.310461215457521E-16,-2.4715939055627265,-0.03718896475792745,-1.428993135204757,0.0,0.0,0.0,434989.540812,0.0,0.0,5.46941408349,-1.21701227671,-6.54822705894
60.0,-1794950.03461,3943126.0299,5239239.62072,-4298383.75497,509016.725548,5242568.01442,456.873453274,-7547.42173401,1056.41305958,5.45257924199,-0.645697124725,-6.65029442685,6759053.07579,1.02772307802,3.853446824151994E-15,-0.20243605963946548,2.5500751042166916E-16,-2.4720451944049366,0.015605902028330697,-1.3871941836894333,0.0,-0.0011222300308754611,0.0,433093.864999,0.0,0.0,5.45257924199,-0.645697124725,-6.65029442685
120.0,-2147547.17171,3685627.21378,5290617.60031,-4261177.84166,55353.9685752,5293934.33528,782.91011309,-7568.91571403,655.073376704,5.41122605044,-0.0702934371387,-6.72271293264,6759053.07579,1.03209834711,9.18014063044386E-15,-0.2023671887691582,2.4083702271210555E-16,-2.470286822045643,0.0683734663492189,-1.3453262663509098,0.0,-0.0011222300308754611,0.0,430905.280808,0.0,0.0,5.41122605044,-0.0702934371387,-6.72271293264
180.0,-2492684.25219,3414408.9038,5317818.00015,-4204498.84972,-398561.363029,5321107.91929,1105.73160266,-7555.82484025,250.289448679,5.3454273793,0.506714568946,-6.7650383498,6759053.07579,1.0364736162,1.643318341844037E-14,-0.2022480267286376,2.1249806144482299E-16,-2.466297307513463,0.12102070149960639,-1.303154824308686,0.0,-0.0011222300308754611,0.0,428429.879583,0.0,0.0,5.3454273793,0.506714568946,-6.7650383498
240.0,-2828892.49297,3130615.64088,5320688.44124,-4128583.60235,-850652.79475,5323936.49263,1423.8758901,-7508.12814382,-156.122774234,5.25535668535,1.08281296502,-6.77694529983,6759053.07579,1.04084888529,2.9465354296026716E-14,-0.20207523422831494,-2.195735536476551E-15,-2.4600278400927786,0.1734520917711023,-1.2604406632134308,0.0,-0.0011222300308754611,0.0,425676.596117,0.0,0.0,5.25535668535,1.08281296502,-6.77694529983
300.0,-3154729.04304,2835438.4175,5299185.94612,-4033756.27142,-1298847.13302,5302377.25117,1735.89440574,-7425.95617001,-562.331476724,5.14128947641,1.65546667848,-6.75823092103,6759053.07579,1.04522415437,4.4195954312861976E-14,-0.20184570220847398,-5.354509849454976E-15,-2.4514015320610127,0.22556763079816464,-1.216936353784656,0.0,-0.0011222300308754611,0.0,422657.223054,0.0,0.0,5.14128947641,1.65546667848,-6.75823092103
360.0,-3468783.08035,2530110.05102,5253377.66861,-3920427.38526,-1741083.58876,5256497.58981,2040.35820271,-7309.59197714,-966.496434168,5.00360451249,2.22212857049,-6.70881831892,6759053.07579,1.04959942346,3.8924135307222435E-14,-0.2015565667461278,-7.648847549459297E-15,-2.4403123001245675,0.2772606847084223,-1.1723826141690332,0.0,-0.0011222300308754611,0.0,419386.386708,0.0,0.0,5.00360451249,2.22212857049,-6.70881831892
420.0,-3769681.89227,2215900.38876,5183441.17035,-3789092.46489,-2175322.94418,5186475.37826,2335.86418043,-7159.47157517,-1366.77666754,4.84278469881,2.780249035,-6.62875974534,6759053.07579,1.05397469255,3.484225075835092E-14,-0.2012052231415713,-1.2322259414548957E-14,-2.4266234488921494,0.32841566026697583,-1.1265047086280184,0.0,-0.0011222300308754611,0.0,415881.483384,0.0,0.0,4.84278469881,2.780249035,-6.62875974534
480.0,-4056096.91578,1894111.35661,5089664.23286,-3640330.28535,-2599556.72836,5092598.77217,2621.04135142,-6976.18377267,-1761.33827946,4.65941762361,3.32728612084,-6.51823944782,6759053.07579,1.05834996164,3.381961171411518E-14,-0.20078933913925034,-1.3454200640013769E-14,-2.410166082398258,0.37890541913027004,-1.0790089514129753,0.0,-0.0011222300308754611,0.0,412162.575825,0.0,0.0,4.65941762361,3.32728612084,-6.51823944782
540.0,-4326749.71204,1566071.86402,4972444.19482,-3474800.76039,-3011816.36507,4975265.54902,2894.55712843,-6760.469401,-2148.3624498,4.45419569214,3.86071616874,-6.37757612705,6759053.07579,1.06272523073,3.092746572608191E-14,-0.2003068671869543,-1.2178397675987254E-14,-2.390737553674849,0.4285883837533455,-1.0295794903432756,0.0,-0.0011222300308754611,0.0,408252.249936,0.0,0.0,4.45419569214,3.86071616874,-6.37757612705
600.0,-4580417.84864,1233132.57931,4832286.8057,-3293242.44988,-3410182.25456,4834981.96025,3155.12360624,-6513.21988518,-2526.05356531,4.22791580717,4.37804494471,-6.20722493659,6759053.07579,1.06710049981,2.650629613186842E-14,-0.19975605565130194,-1.8067325782235623E-14,-2.368100287875824,0.47730529221887513,-0.9778756738811295,0.0,-0.0011222300308754611,0.0,404175.432484,0.0,0.0,4.22791580717,4.37804494471,-6.20722493659
660.0,-4815940.66127,896660.590704,4669804.5887,-3096469.69121,-3792792.74939,4672361.09222,3401.50380953,-6235.4751326,-2892.64745382,3.98147854685,4.87681923941,-6.00777895699,6759053.07579,1.0714757689,1.4384091265183374E-14,-0.19913545891970708,-1.9877228480676477E-14,-2.3419815006332434,0.5248755839273189,-0.9235304947778583,0.0,-0.0011222300308754611,0.0,399959.171112,0.0,0.0,3.98147854685,4.87681923941,-6.00777895699
720.0,-5032224.8657,558033.969582,4485714.70755,-2885369.35763,-4157852.98233,4488120.73091,3632.51787503,-5928.42071291,-3246.41968936,3.71588679137,5.35463889108,-5.77997007488,6759053.07579,1.07585103799,5.209260083770232E-15,-0.19844394630504836,-1.9761214883052202E-14,-2.3120745961882356,0.5710934443666792,-0.8661508699147504,0.0,-0.0011222300308754611,0.0,395632.378601,0.0,0.0,3.71588679137,5.35463889108,-5.77997007488
780.0,-5228249.98959,218636.25383,4280836.33417,-2660897.24845,-4503643.50324,4283080.727,3847.04913363,-5593.38430506,-3585.69393051,3.43224375272,5.80916917685,-5.52466919803,6759053.07579,1.08022630708,-2.2079350663536232E-15,-0.19768070965879564,-1.9078823522078178E-14,-2.278043383844667,0.6157236175579897,-0.8053208725167013,0.0,-0.0011222300308754611,0.0,391225.543994,0.0,0.0,3.43224375272,5.80916917685,-5.52466919803
840.0,-5403073.59288,-120149.129324,4056087.51628,-2424074.11829,-4828528.68027,4058159.86081,4044.05005535,-5231.83139154,-3908.85024995,3.13175036477,6.23815350432,-5.24288573872,6759053.07579,1.08460157617,-4.811362736326088E-15,-0.19684526965768578,-1.8283178397997244E-14,-2.2395306890746065,0.6584972253791455,-0.7406094741657385,0.0,-0.0011222300308754611,0.0,386770.413852,0.0,0.0,3.13175036477,6.23815350432,-5.24288573872
900.0,-5555836.24484,-456944.480378,3812481.54702,-2175981.35466,-5130964.8197,3814372.20879,4222.54801743,-4845.36018411,-4214.33340949,2.81570199584,6.6394263225,-4.93576630063,6759053.07579,1.08897684525,-6.055562827289559E-15,-0.1959374806243221,-1.7147995669814814E-14,-2.196173409618573,0.6991080320279793,-0.6715848301062751,0.0,-0.0011222300308754611,0.0,382299.647578,0.0,0.0,2.81570199584,6.6394263225,-4.93576630063
960.0,-5685766.22542,-790383.462502,3551122.84112,-1917756.31589,-5409507.95802,3552823.01637,4381.65085415,-4435.69577058,-4500.66103092,2.4854844516,7.01092615838,-4.60459250912,6759053.07579,1.09335211434,-1.0128368932872226E-14,-0.19495753387646123,-1.623934013259304E-14,-2.1476264377012977,0.7372098731348192,-0.5978375145795667,0.0,-0.0011222300308754611,0.0,377846.4514,0.0,0.0,2.4854844516,7.01092615838,-4.60459250912
1020.0,-5792183.91829,-1119116.73102,3273202.32557,-1650587.3436,-5662821.27932,3274704.08507,4520.5521448,-4004.68347827,-4766.43160951,2.14256924321,7.35070867344,-4.25077793096,6759053.07579,1.09772738343,-1.8555403099232675E-14,-0.19390595950201286,-1.561369285173503E-14,-2.093597855730558,0.7724163273700638,-0.5190151007703818,0.0,-0.0011222300308754611,0.0,373444.196214,0.0,0.0,2.14256924321,7.35070867344,-4.25077793096
1080.0,-5874505.86327,-1441817.53295,2979992.3559,-1375708.46692,-5889682.11101,2981288.68486,4638.53619533,-3554.28145632,-5010.33231432,1.78850810379,7.65695962306,-3.87586403722,6759053.07579,1.10210265252,-2.358507012425675E-14,-0.1927836265108836,-1.3291346472877959E-14,-2.0338969399550955,0.8043040940332757,-0.4348696089353474,0.0,-0.0011222300308754611,0.0,369126.025053,0.0,0.0,1.78850810379,7.65695962306,-3.87586403722
1140.0,-5932248.43619,-1757187.2509,2672841.17243,-1094393.81814,-6088988.45127,2673926.00637,4734.98266817,-3086.55248662,-5231.14651659,1.42492674576,7.92800759199,-3.4815151726,6759053.07579,1.10647792161,-2.8244629632807325E-14,-0.191591741314795,-1.0065153302597522E-14,-1.968494152701902,0.8324218222322988,-0.3453169937496435,0.0,-0.0011222300308754611,0.0,364924.456417,0.0,0.0,1.42492674576,7.92800759199,-3.4815151726
1200.0,-5965031.12518,-2063960.8648,2353166.91479,-807951.782221,-6259764.98247,2354035.17104,4809.37081475,-2603.65504054,-5427.76098574,1.05351786143,8.16233637022,-3.06951250521,6759053.07579,1.11085319069,-3.1573141241179026E-14,-0.1903318444931885,-8.25367702994638E-15,-1.8975879558838207,0.8563060762494299,-0.2505034948136596,0.0,-0.0011222300308754611,0.0,360870.990095,0.0,0.0,1.05351786143,8.16233637022,-3.06951250521
1260.0,-5972579.37343,-2360912.30404,2022451.21642,-517718.905445,-6401168.52591,2023098.82109,4861.28326571,-2107.83360755,-5599.1726915,0.676033380941,8.35859682742,-2.64174694339,6759053.07579,1.11522845978,-3.636910457295039E-14,-0.18900580581729173,-5.708282147436747E-15,-1.8216671353457778,0.8755053926938258,-0.15086753246260137,0.0,-0.0011222300308754611,0.0,356995.722332,0.0,0.0,0.676033380941,8.35859682742,-2.64174694339
1320.0,-5954726.96024,-2646859.66204,1682232.4044,-225053.590989,-6512492.89535,1682656.31463,4890.4093349,-1601.40833006,-5744.49514997,0.29427601265,8.51561813893,-2.20021101976,6759053.07579,1.11960372887,-4.5060884221681606E-14,-0.18761581749394907,-2.316609721745619E-15,-1.7415511375461163,0.8896117212815267,-0.04717964371900692,0.0,-0.0011222300308754611,0.0,353326.977325,0.0,0.0,0.29427601265,8.51561813893,-2.20021101976
1380.0,-5911417.89408,-2920670.24494,1334098.33399,68670.3880715,-6593173.10883,1334296.55535,4896.54779513,-1086.76398782,-5862.9642521,-0.0899098960441,8.63241821494,-1.7469897572,6759053.07579,1.12397899796,-5.438302337484637E-14,-0.18616438565190543,1.0732562390264592E-15,-1.658388369120703,0.8982960218291156,0.059459597706705954,0.0,-0.0011222300308754611,0.0,349890.961953,0.0,0.0,-0.0899098960441,8.63241821494,-1.7469897572
1440.0,-5842707.79365,-3181265.4259,979678.890618,362070.525485,-6642788.92137,979650.489396,4879.60908652,-566.338384237,-5953.94351428,-0.47464812762,8.70821318438,-1.2842505473,6759053.07579,1.12835426705,-6.296535866513983E-14,-0.18465432004610902,5.647117369057219E-15,-1.5735978370241681,0.9013421412672873,0.16767830484890037,0.0,-0.0011222300308754611,0.0,346711.450415,0.0,0.0,-0.47464812762,8.70821318438,-1.2842505473
1500.0,-5748764.736,-3427625.27674,620638.195746,653762.333107,-6661067.64437,620383.306138,4839.61692122,-42.6101956256,-6016.92869314,-0.85804093063,8.7424257886,-0.814232087702,6759053.07579,1.13272953613,-6.458421577936797E-14,-0.18308872201843024,9.032757451669376E-15,-1.4887544881298564,0.898671653796826,0.2759482912661997,0.0,-0.0011222300308754611,0.0,343809.50501,0.0,0.0,-0.85804093063,8.7424257886,-0.814232087702
1560.0,-5629869.55341,-3658792.94917,258666.556372,942366.169551,-6647886.22158,258186.382422,4776.70925287,481.913646959,-6051.55170992,-1.23817984887,8.7346925464,-0.339232440952,6759053.07579,1.13710480522,-6.662847085793368E-14,-0.18147097072875912,1.3714410222651453E-14,-1.40543846448609,0.8903533889481704,0.38273616390528237,0.0,-0.0011222300308754611,0.0,341203.238719,0.0,0.0,-1.23817984887,8.7346925464,-0.339232440952
1620.0,-5486415.56481,-3873878.77828,-104527.798867,1226514.10726,-6603272.53591,-105230.986633,4691.13858358,1004.71096567,-6057.58383388,-1.61315695787,8.68486956074,0.138403706297,6759053.07579,1.14148007431,-6.677569745615239E-14,-0.17980470773676682,1.6926219089550312E-14,-1.3250831126115463,0.8765950545699809,0.48665566178453706,0.0,-0.0011222300308754611,0.0,338907.624413,0.0,0.0,-1.61315695787,8.68486956074,0.138403706297
1680.0,-5318907.73071,-4072064.08257,-467227.151208,1504856.79758,-6527405.92614,-468150.024467,4583.27158689,1523.2576485,-6034.93807966,-1.98107641259,8.59303685006,0.616298489342,6759053.07579,1.1458553434,-6.255827941936965E-14,-0.17809381995876536,1.962833876975556E-14,-1.2488571127191321,0.8577192397614389,0.5865858795973985,0.0,-0.0011222300308754611,0.0,336934.354625,0.0,0.0,-1.98107641259,8.59303685006,0.616298489342
1740.0,-5127961.22508,-4252604.63566,-827712.842534,1776070.29225,-6420616.89804,-828851.029179,4453.58803118,2035.04117495,-5983.67077935,-2.3400662012,8.45950110172,1.09205490778,6759053.07579,1.15023061249,-5.369317147675019E-14,-0.17634242111136705,2.3851101637913347E-14,-1.1776021910181746,0.8341299041596535,0.6817339182492723,0.0,-0.0011222300308754611,0.0,335291.754697,0.0,0.0,-2.3400662012,8.45950110172,1.09205490778
1800.0,-4914299.42181,-4414833.78684,-1184273.89493,2038862.7791,-6283386.01996,-1185621.99837,4302.67899439,2537.57425735,-5903.98229722,-2.68828999194,8.28479676321,1.56327134181,6759053.07579,1.15460588158,-4.402318772858433E-14,-0.17455483171001132,2.6887401467995563E-14,-1.1118280220754253,0.8062766880124569,0.7716403607058901,0.0,-0.0011222300308754611,0.0,333984.750972,0.0,0.0,-2.68828999194,8.28479676321,1.56327134181
1860.0,-4678751.29767,-4558165.2095,-1535215.64684,2291981.18932,-6116341.99901,-1536767.27052,4131.24436819,3028.40849621,-5796.21686253,-3.0239589542,8.06968540626,2.02755640835,6759053.07579,1.15898115066,-3.8853140656751344E-14,-0.17273555775221133,3.2119347606044944E-14,-1.0517504053442654,0.7746230677648103,0.8561414947203864,0.0,-0.0011222300308754611,0.0,333014.894418,0.0,0.0,-3.0239589542,8.06968540626,2.02755640835
1920.0,-4422248.25862,-4682095.25886,-1878868.35241,2534217.63371,-5920258.94013,-1880616.12945,3940.08965667,3505.14794438,-5660.86150438,-3.34534343127,7.81515332121,2.48254401346,6759053.07579,1.16335641975,-3.1940063996025216E-14,-0.17088926819425454,3.2897702599187455E-14,-0.997352736797172,0.739621767094102,0.9353082676720366,0.0,-0.0011222300308754611,0.0,332380.438837,0.0,0.0,-3.34534343127,7.81515332121,2.48254401346
1980.0,-4145820.40067,-4786204.92279,-2213595.68989,2764415.62604,-5696052.79669,-2215531.31771,3730.12208223,3965.46247331,-5498.54408123,-3.65078433973,7.52240732274,2.92590844975,6759053.07579,1.16773168884,-2.976174947023187E-14,-0.16902077135853985,3.559020939481934E-14,-0.9484529480621173,0.7016982752110066,1.009379807887856,0.0,-0.0011222300308754611,0.0,332076.471525,0.0,0.0,-3.65078433973,7.52240732274,2.92590844975
2040.0,-3850592.22128,-4870161.3526,-2537803.12491,2981476.05246,-5444777.02776,-2539917.40465,3502.34601885,4407.10083406,-5310.03040723,-3.93870417168,7.1928687723,3.35537938303,6759053.07579,1.17210695793,-2.2658981527488737E-14,-0.1671349904192068,3.467809346823407E-14,-0.9047641662884363,0.6612415958622121,1.0787032667264445,0.0,-0.0011222300308754611,0.0,332095.093073,0.0,0.0,-3.93870417168,7.1928687723,3.35537938303
2100.0,-3537777.80187,-4933718.96329,-2849946.07462,3184362.84734,-5167617.48352,-2852228.9552,3257.85778014,4827.9033068,-5096.22048649,-4.20761747786,6.82816584821,3.76875657018,6759053.07579,1.17648222702,-1.5814029913374608E-14,-0.16523693812243737,3.6411663181293315E-14,-0.8659435687347867,0.6186005662547494,1.1436855158910602,0.0,-0.0011222300308754611,0.0,332425.641892,0.0,0.0,-4.20761747786,6.82816584821,3.76875657018
2160.0,-3208675.48644,-4976720.09638,-3148537.81989,3372108.33799,-4865886.54667,-3150978.44646,2997.83979695,5225.81383539,-4858.14387639,-4.45614071542,6.43012411936,4.1639241511,6759053.07579,1.1808574961,-3.54437458714793E-15,-0.16333169090496868,3.9156900200960463E-14,-0.8316283911054979,0.574083990425327,1.20475775051178,0.0,-0.0011222300308754611,0.0,333054.958087,0.0,0.0,-4.45614071542,6.43012411936,4.1639241511
2220.0,-2864662.08548,-4999095.24134,-3432157.11416,3543818.22264,-4541016.56366,-3434743.88065,2723.55422592,5598.8915474,-4596.9542099,-4.68300135086,6.00075550322,4.5388643611,6759053.07579,1.18523276519,5.11805274833627E-15,-0.16142436258447612,3.7569881713163505E-14,-0.8014605219065922,0.5279630998718329,1.26235157666518,0.0,-0.0011222300308754611,0.0,333967.680488,0.0,0.0,-4.68300135086,6.00075550322,4.5388643611
2280.0,-2507186.63844,-5000862.81521,-3699455.43968,3698676.14909,-4194552.6056,-3702176.04521,2436.33603669,5945.32156562,-4313.92291635,-4.88704611809,5.54224571226,4.89167051695,6759053.07579,1.18960803428,1.9678751642475798E-14,-0.15952007779496405,3.480327790469614E-14,-0.7751020651871899,0.48047523808126674,1.3168842134606455,0.0,-0.0011222300308754611,0.0,335146.570037,0.0,0.0,-4.88704611809,5.54224571226,4.89167051695
2340.0,-2137763.77156,-4982128.50339,-3949163.86436,3835947.86426,-3828144.60383,-3952005.37318,2137.58563129,6263.4250242,-4010.43218819,-5.06724834292,5.05694031478,5.22055913873,6759053.07579,1.19398330337,3.012746589817951E-14,-0.15762394535216878,3.2769239960184183E-14,-0.7522443079923347,0.4318280279885307,1.368750387731326,0.0,-0.0011222300308754611,0.0,336572.852288,0.0,0.0,-5.06724834292,5.05694031478,5.22055913873
2400.0,-1757966.69114,-4943084.16797,-4180099.45578,3954984.90837,-3443538.91046,-4183048.36043,1828.76105392,6551.66821047,-3687.96724962,-5.22271425802,4.54732955557,5.52388108175,6759053.07579,1.19835857246,2.893848950395058E-14,-0.15574103172333217,3.1551382245654485E-14,-0.7326121724849861,0.3822035682087175,1.4183188579438926,0.0,-0.0011222300308754611,0.0,338226.571559,0.0,0.0,-5.22271425802,4.54732955557,5.52388108175
2460.0,-1369419.85535,-4884006.3332,-4391171.21226,4055227.83087,-3042569.33836,-4394213.49952,1511.36985379,6808.67076269,-3348.10798978,-5.3526882467,4.01603209892,5.80013156679,6759053.07579,1.20273384154,3.151411469055451E-14,-0.1538763347839074,2.8255970925752848E-14,-0.7159657603494773,0.33176240803320906,1.4659319787057299,0.0,-0.0011222300308754611,0.0,340086.949209,0.0,0.0,-5.3526882467,4.01603209892,5.80013156679
2520.0,-973791.36975,-4805254.26115,-4581385.47492,4136208.90944,-2627147.73915,-4584506.69429,1186.96066657,7033.2128646,-2992.52002966,-5.45655696921,3.46577787028,6.04795901291,6759053.07579,1.20710911063,3.442543443936626E-14,-0.15203475803747518,2.5355764517843545E-14,-0.7021001542341334,0.2806471857255818,1.5119071629564047,0.0,-0.0011222300308754611,0.0,342132.738713,0.0,0.0,-5.45655696921,3.46577787028,6.04795901291
2580.0,-572785.153879,-4707267.63332,-4749850.78901,4197554.35713,-2199254.18077,-4753036.12329,857.11458264,7224.24138794,-2622.94529694,-5.53385234125,2.89939018337,6.26617259505,6759053.07579,1.21148437972,4.328659052511382E-14,-0.15022108546624727,2.2681948861403785E-14,-0.6908442813412137,0.22898589780952944,1.5565394616323676,0.0,-0.0011222300308754611,0.0,344342.570476,0.0,0.0,-5.53385234125,2.89939018337,6.26617259505
2640.0,-168132.927473,-4590563.85722,-4895782.18731,4238986.00693,-1760926.78911,-4899016.52483,523.436371451,7380.87494608,-2241.19218712,-5.58425335072,2.31976734681,6.45374846704,6759053.07579,1.21585964881,3.440670609603767E-14,-0.14843995717866199,1.8817044402438563E-14,-0.6820593755684409,0.1768948151510148,1.6001047527360528,0.0,-0.0011222300308754611,0.0,346695.279831,0.0,0.0,-5.58425335072,2.31976734681,6.45374846704
2700.0,238413.934225,-4455735.01921,-5018504.87327,4260322.46716,-1314251.31974,-5021772.88145,187.545631709,7502.40783335,-1849.12539243,-5.60758671499,1.72986394752,6.60983461059,6759053.07579,1.2202349179,2.1491602635388525E-14,-0.1466958460078351,1.6020502747823066E-14,-0.6756373840652798,0.12448108742026098,1.6428632255401556,0.0,-0.0011222300308754611,0.0,349170.212256,0.0,0.0,-5.60758671499,1.72986394752,6.60983461059
2760.0,645092.626255,-4303444.50744,-5117457.28626,4261479.74551,-861350.526997,-5120743.48606,-148.932063516,7588.31283656,-1448.65548146,-5.60382639698,1.13267200796,6.7337542903,6759053.07579,1.22461018698,1.1556561164506249E-14,-0.14499303520363405,1.482437518309813E-14,-0.6714995346544718,0.0718450898757752,1.6850629784739284,0.0,-0.0011222300308754611,0.0,351747.500551,0.0,0.0,-5.60382639698,1.13267200796,6.7337542903
2820.0,1050137.17125,-4134423.33074,-5192193.5368,4242471.3432,-404373.398384,-5195482.37767,-484.373959199,7638.2429171,-1041.72831349,-5.57309201318,0.531202210827,6.82500811467,6759053.07579,1.22898545607,1.5143304989556697E-15,-0.14333559735294005,1.615986944487929E-14,-0.6695951950202569,0.019082571212952176,1.7269436371942117,0.0,-0.0011222300308754611,0.0,354408.309484,0.0,0.0,-5.57309201318,0.531202210827,6.82500811467
2880.0,1451786.6593,-3949466.16093,-5242385.20403,4203407.82517,54515.6783472,-5245661.13888,-817.168783163,7652.03177315,-630.314370399,-5.51564618127,-0.0715346227637,6.88327472194,6759053.07579,1.23336072516,-3.19618221860803E-15,-0.1417273746452106,1.6170158724404064E-14,-0.6699010994769019,-0.03371333770769191,1.7687399555819074,0.0,-0.0011222300308754611,0.0,357135.044295,0.0,0.0,-5.51564618127,-0.0715346227637,6.88327472194
2940.0,1848293.42268,-3749427.12758,-5267822.49316,4144495.87575,513147.748719,-5271070.0531,-1145.7252214,7629.69330268,-216.398087948,-5.43189086714,-0.672545625168,6.90841012752,6759053.07579,1.23773599425,-7.624295769730413E-15,-0.14017196059137696,1.6797276617682677E-14,-0.6724209836782684,-0.08645019492961135,1.8106853961086613,0.0,-0.0011222300308754611,0.0,359911.520269,0.0,0.0,-5.43189086714,-0.672545625168,6.90841012752
3000.0,2237931.09915,-3535215.39525,-5268414.75509,4066036.85297,969360.060599,-5271618.62336,-1468.48014593,7571.41999793,198.03273503,-5.32236280272,-1.26887338102,6.9004457868,6759053.07579,1.24211126334,-1.603007246874596E-14,-0.13867268328421709,1.713704425637158E-14,-0.6771856436972087,-0.13903433958431627,1.8530157035520955,0.0,-0.0011222300308754611,0.0,362723.091517,0.0,0.0,-5.32236280272,-1.26887338102,6.9004457868
3060.0,2619002.53985,-3307790.55367,-5244190.37524,3968424.85797,1421006.70587,-5247335.46012,-1783.90654191,7477.58031148,610.997374296,-5.18772805519,-1.85761268475,6.85958544151,6759053.07579,1.24648653242,-2.7794847693386886E-14,-0.13723259027804444,1.8548577795286674E-14,-0.6842534168847179,-0.19136894674583227,1.8959724901412025,0.0,-0.0011222300308754611,0.0,365556.737966,0.0,0.0,-5.18772805519,-1.85761268475,6.85958544151
3120.0,2989847.51966,-3068157.85217,-5195296.04281,3852144.33894,1865969.07438,-5198367.549,-2090.52108555,7348.71504243,1020.5323942,-5.02877583577,-2.43592642589,6.78620083147,6759053.07579,1.25086180151,-3.664191255676412E-14,-0.13585443514792755,1.9189380811530075E-14,-0.6937110622681143,-0.24335198611821643,1.939806842712085,0.0,-0.0011222300308754611,0.0,368401.110435,0.0,0.0,-5.02877583577,-2.43592642589,6.78620083147
3180.0,3348850.21116,-2817363.30924,-5121995.41597,3717767.25214,2302166.06313,-5124978.9142,-2386.8913301,7185.53279856,1424.70157259,-4.84641164172,-3.00106048949,6.68082636401,6759053.07579,1.2552370706,-2.5207819897279224E-14,-0.13454066577399293,2.232292495345079E-14,-0.7056749917324735,-0.2948740250430202,1.9847829409325761,0.0,-0.0011222300308754611,0.0,371246.534488,0.0,0.0,-4.84641164172,-3.00106048949,6.68082636401
3240.0,3694446.38566,-2556488.72799,-5024667.202,3565949.80423,2727563.98684,-5027548.69645,-2671.64246284,6988.90459627,1821.60547721,-4.64164982897,-3.55035757879,6.54415284235,6759053.07579,1.25961233969,-2.1395042828592688E-14,-0.13329341438065628,2.3719373397646075E-14,-0.7202927632859396,-0.34581581606156386,2.031181636030057,0.0,-0.0011222300308754611,0.0,374084.974545,0.0,0.0,-4.64164982897,-3.55035757879,6.54415284235
3300.0,4025130.30821,-2286646.64772,-4903802.67502,3397428.80301,3140186.14053,-4906568.66827,-2943.46360173,6759.85766546,2209.39064011,-4.4156057145,-4.08126988692,6.37702036051,6759053.07579,1.26398760878,-1.8143725272864782E-14,-0.13211448934893424,2.547961419491059E-14,-0.7377446853524102,-0.3960456111539385,2.0793038761048335,0.0,-0.0011222300308754611,0.0,376909.960475,0.0,0.0,-4.4156057145,-4.08126988692,6.37702036051
3360.0,4339461.29657,-2008975.26081,-4760002.6568,3213017.64477,3538121.96808,-4762640.21201,-3201.11360661,6499.56853001,2586.2582837,-4.16948730724,-4.59137056448,6.1804104765,6759053.07579,1.26836287786,-1.1142195875129583E-14,-0.13100536880166094,2.3516192299335998E-14,-0.7582452848779269,-0.44541615112807603,2.1294737648371034,0.0,-0.0011222300308754611,0.0,379716.479529,0.0,0.0,-4.16948730724,-4.59137056448,6.1804104765
3420.0,4636069.91756,-1724633.32313,-4593973.9887,3013601.968,3919535.79589,-4596470.78875,-3443.4263856,6209.35543712,2950.47255823,-3.9045867647,-5.07836394948,5.95543777733,6759053.07579,1.27273814695,-1.6794991883796297E-15,-0.129967195953582,2.5472404357056732E-14,-0.7820442474068974,-0.49376129409043906,2.1820408922694527,0.0,-0.0011222300308754611,0.0,382500.8371,0.0,0.0,-3.9045867647,-5.07836394948,5.95543777733
3480.0,4913663.79742,-1434795.08476,-4406525.52516,2800135.00424,4282675.09454,-4408869.92844,-3669.3156829,5890.67021055,3300.36825786,-3.62227166888,-5.54009454489,5.70334094941,6759053.07579,1.27711341604,1.0467560953892946E-14,-0.1290007762010179,2.502138901806305E-14,-0.8094262268499344,-0.5408922778251732,2.2373813630152255,0.0,-0.0011222300308754611,0.0,385260.490297,0.0,0.0,-3.62227166888,-5.54009454489,5.70334094941
3540.0,5171033.0263,-1140645.26632,-4198563.68078,2573632.65745,4625878.23626,-4200744.7735,-3877.77934009,5545.08960263,3634.35798889,-3.32397621037,-5.97455474653,5.4254734655,6759053.07579,1.28148868513,1.998121569143848E-14,-0.12810657592107755,2.194015840613481E-14,-0.8407086294148695,-0.5865936672669928,2.295896650205524,0.0,-0.0011222300308754611,0.0,387993.858758,0.0,0.0,-3.32397621037,-5.97455474653,5.4254734655
3600.0,5407055.14017,-843374.104543,-3971087.5644,2335168.34355,4947581.72038,-3973095.2091,-4067.90302771,5174.30621967,3950.93877037,-3.01119236341,-6.37989134055,5.12329399539,6759053.07579,1.28586395422,2.8149834739952088E-14,-0.12728472293347226,1.9587360157020845E-14,-0.8762360914513222,-0.6306191339198035,2.3580090159721405,0.0,-0.0011222300308754611,0.0,390700.117498,0.0,0.0,-3.01119236341,-6.37989134055,5.12329399539
3660.0,5620699.6667,-544172.48899,-3725183.73478,2085867.62197,5246326.84327,-3727008.61497,-4238.86344901,4780.11909369,4248.69805362,-2.68546112793,-6.75441080424,4.79835664237,6759053.07579,1.2902392233,2.9322271238606616E-14,-0.12653500857414163,1.745906226411659E-14,-0.9163699115274581,-0.6726873660964797,2.4241517772227263,0.0,-0.0011222300308754611,0.0,393378.976818,0.0,0.0,-2.68546112793,-6.75441080424,4.79835664237
3720.0,5811032.22481,-244227.209722,-3462020.61283,1826902.6506,5520765.79381,-3463654.27352,-4389.93102205,4364.42397074,4526.31915317,-2.34836390665,-7.09658345672,4.45230110012,6759053.07579,1.29461449239,3.54187040215875E-14,-0.12585689132257113,1.443605945902425E-14,-0.961470237109205,-0.7124786350952624,2.4947522326729636,0.0,-0.0011222300308754611,0.0,396030.45451,0.0,0.0,-2.34836390665,-7.09658345672,4.45230110012
3780.0,5977218.17013,55283.6658727,-3182842.58594,1559486.49531,5769667.15933,-3184277.46993,-4520.47204981,3929.20338342,4782.58608683,-2.00151407727,-7.40504651712,4.08684281729,6759053.07579,1.29898976148,3.944434774212254E-14,-0.12524950191421072,1.337191363171984E-14,-1.0118685262962939,-0.749632852328906,2.570204785858193,0.0,-0.0011222300308754611,0.0,398654.645626,0.0,0.0,-2.00151407727,-7.40504651712,4.08684281729
3840.0,6118525.78184,353195.271094,-2888963.83958,1284867.3242,5991920.83096,-2890193.31942,-4629.95039201,3476.51657091,5016.38782793,-1.64654881108,-7.67860613658,3.70376324796,6759053.07579,1.30336503057,4.5260029930789114E-14,-0.12471164986975142,8.671575573878972E-15,-1.0678280504331095,-0.7837503289757446,2.650832041639663,0.0,-0.0011222300308754611,0.0,401251.49508,0.0,0.0,-1.64654881108,-7.67860613658,3.70376324796
3900.0,6234328.98838,648360.258607,-2581761.95138,1004322.51621,6186542.30124,-2582780.35695,-4717.92865433,3008.48930614,5226.72197682,-1.28512118071,-7.91623847754,3.3049002569,6759053.07579,1.30774029966,4.8166372108610055E-14,-0.12424183136464052,5.146697135880125E-15,-1.1294915110967922,-0.8143968197560832,2.7368329602217183,0.0,-0.0011222300308754611,0.0,403820.578217,0.0,0.0,-1.28512118071,-7.91623847754,3.3049002569
3960.0,6324109.63214,939652.947547,-2262671.28216,719152.712274,6352676.34982,-2263473.92368,-4784.06891379,2527.30368474,5412.69786296,-0.918892590997,-8.11708991876,2.89213873894,6759053.07579,1.31211556874,5.24712934184542E-14,-0.12383823836204039,3.4123122585557807E-15,-1.1968178447584055,-0.8411146295530593,2.828220151590752,0.0,-0.0011222300308754611,0.0,406360.894278,0.0,0.0,-0.918892590997,-8.11708991876,2.89213873894
4020.0,6387459.2751,1225973.28866,-1933176.19752,430675.836456,6489600.11669,-1933759.38411,-4828.13300025,2035.18792601,5573.53909174,-0.549525558554,-8.28047646755,2.4674015018,6759053.07579,1.31649083783,5.507015842588465E-14,-0.12349876892964426,-2.796859239508393E-16,-1.2695153353990374,-0.8634413095785558,2.9247534383878553,0.0,-0.0011222300308754611,0.0,408870.677352,0.0,0.0,-0.549525558554,-8.28047646755,2.4674015018
4080.0,6424080.54918,1506250.63887,-1594804.15299,140221.112943,6596725.56493,-1595165.20658,-4849.98235563,1534.4062307,5708.58555321,-0.178676857557,-8.4058824621,2.03264045201,6759053.07579,1.32086610692,5.99625972095475E-14,-0.12322103866006363,-3.020503963917356E-15,-1.3469846107858312,-0.8809364400317705,3.0258832704844236,0.0,-0.0011222300308754611,0.0,411347.229036,0.0,0.0,-0.178676857557,-8.4058824621,2.03264045201
4140.0,6433788.05692,1779447.33834,-1249118.67426,-150876.896398,6673601.33771,-1249255.93899,-4849.5774931,1027.24873609,5817.29491192,0.192008958426,-8.49295864643,1.58982811405,6759053.07579,1.32524137601,6.714846123564025E-14,-0.12300239311467683,-7.495121870537538E-15,-1.428290536351192,-0.8932150022239363,3.130723011666904,0.0,-0.0011222300308754611,0.0,413786.776534,0.0,0.0,0.192008958426,-8.49295864643,1.58982811405
4200.0,6416508.82913,2044562.08467,-897712.26312,-441284.210585,6719914.01633,-897625.110148,-4826.97707905,516.021603133,5899.24359832,0.560905655685,-8.54151969878,1.14094950349,6759053.07579,1.3296166451,7.426453964062827E-14,-0.12283992121082789,-1.392722302428575E-14,-1.5121822731221788,-0.8999831605437207,-3.0451159362124183,0.0,-0.0011222300308754611,0.0,416184.359369,0.0,0.0,0.560905655685,-8.54151969878,1.14094950349
4260.0,6372282.3474,2300633.10031,-542199.258236,-729673.282247,6735488.78823,-541888.086009,-4782.33666022,3.03726656842,5954.12732361,0.926411044271,-8.55154129087,0.687994366592,6759053.07579,1.33399191418,8.157662818101266E-14,-0.12273046947470885,-1.750667440558989E-14,-1.5971719738118804,-0.9010698719721913,-2.936703848851224,0.0,-0.0011222300308754611,0.0,418533.747289,0.0,0.0,0.926411044271,-8.55154129087,0.687994366592
4320.0,6301260.14053,2546741.09072,-184208.67878,-1014728.76389,6720289.53563,-183674.908837,-4715.90705864,-509.395126459,5981.76114001,1.28695233576,-8.52315675145,0.232949790486,6759053.07579,1.33836718327,8.016375724098966E-14,-0.12267065708313091,-2.259630764015328E-14,-1.6816650560937023,-0.8964470430177564,-2.8287738983460913,0.0,-0.0011222300308754611,0.0,420827.391291,0.0,0.0,1.28695233576,-8.52315675145,0.232949790486
4380.0,6203704.96422,2782011.99167,174622.922551,-1295153.16846,6674418.35662,175376.854216,-4628.03245557,-1018.97906735,5982.07906873,1.64099114903,-8.45665340193,-0.222206818869,6759053.07579,1.34274245236,8.145353818119182E-14,-0.12265689162018228,-2.886058157272188E-14,-1.7641156712061359,-0.8862329656690683,-2.722825108390036,0.0,-0.0011222300308754611,0.0,423056.40901,0.0,0.0,1.64099114903,-8.45665340193,-0.222206818869
4440.0,6079989.57449,3005619.50558,532658.571844,-1569672.40608,6598114.53198,533629.227771,-4519.14818534,-1523.43980887,5955.13331744,1.98702818223,-8.35246862583,-0.675514400543,6759053.07579,1.34711772145,8.314225817963269E-14,-0.12268538547686551,-3.478942790969225E-14,-1.8431705215545071,-0.8706780890887347,-2.620163494742613,0.0,-0.0011222300308754611,0.0,425210.605012,0.0,0.0,1.98702818223,-8.35246862583,-0.675514400543
4500.0,5930595.10512,3216787.42732,888267.927635,-1837041.18025,6491752.95185,889450.886141,-4389.77825826,-2020.53324557,5901.09310826,2.32360757277,-8.21118572715,-1.1250345593,6759053.07579,1.35149299054,7.353661916735018E-14,-0.12275217282564618,-4.066257625761141E-14,-1.9177690958356035,-0.8501369484584502,-2.5218014744176567,0.0,-0.0011222300308754611,0.0,427278.525857,0.0,0.0,2.32360757277,-8.21118572715,-1.1250345593
4560.0,5756109.0603,3414791.76093,1239834.25317,-2096048.22773,6355842.01712,1241224.12976,-4240.53263073,-2508.05454059,5820.24313635,2.6493209692,-8.033529625,-1.56885756298,6759053.07579,1.35586825962,6.237895905009788E-14,-0.12285312710341596,-4.519363273919263E-14,-1.987185566277233,-0.8250331024592595,-2.4284156009646516,0.0,-0.0011222300308754611,0.0,429247.549097,0.0,0.0,2.6493209692,-8.033529625,-1.56885756298
4620.0,5557222.93331,3598962.6291,1585761.28567,-2345521.38744,6191021.03107,1587351.75851,-4072.10423905,-2983.84649016,5712.98167777,2.96281134126,-7.82036242475,-2.00510804031,6759053.07579,1.36024352871,5.0843658744093824E-14,-0.12298397893968932,-4.6984239103428846E-14,-2.05101696052792,-0.7958242030512696,-2.340358007859596,0.0,-0.0011222300308754611,0.0,431104.004757,0.0,0.0,2.96281134126,-7.82036242475,-2.00510804031
4680.0,5334729.46254,3768685.97807,1924479.98215,-2584332.48475,5998057.0971,1926263.82142,-3885.2658118,-3445.80761963,5579.81836374,3.26277655495,-7.57267889759,-2.43195040586,6759053.07579,1.3646187978,4.603425785363064E-14,-0.1231403344710414,-5.011749093184685E-14,-2.109134718158562,-0.7629723965744901,-2.2577044440675422,0.0,-0.0011222300308754611,0.0,432833.327207,0.0,0.0,3.26277655495,-7.57267889759,-2.43195040586
4740.0,5089519.53597,3923405.08071,2254455.12217,-2811402.0181,5777841.53899,2256424.22324,-3680.86647401,-3891.90000602,5421.37163698,3.54797273996,-7.29160189264,-2.84759404108,6759053.07579,1.36899406689,3.647022534273898E-14,-0.12331769398157358,-5.2635708661776776E-14,-2.161619603896322,-0.7269225276861826,-2.180318923499005,0.0,-0.0011222300308754611,0.0,434420.234839,0.0,0.0,3.54797273996,-7.29160189264,-2.84759404108
4800.0,4822578.75529,4062621.84103,2574191.74889,-3025703.63598,5531385.86001,2576337.16915,-3459.82815497,-4320.15682378,5238.3659036,3.81721747658,-6.97837769815,-3.25029826144,6759053.07579,1.37336933598,3.174440242207909E-14,-0.12351147081914092,-5.5545712079601476E-14,-2.208695936689457,-0.6880882942992024,-2.1079190221406012,0.0,-0.0011222300308754611,0.0,435848.934435,0.0,0.0,3.81721747658,-6.97837769815,-3.25029826144
4860.0,4534983.6708,4185897.90327,2882241.43071,-3226268.39277,5259817.25767,2884553.42983,-3223.14180946,-4728.6896109,5031.62839281,4.06939282796,-6.63437136001,-3.63837710015,6759053.07579,1.37774460506,2.0921074370867117E-14,-0.12371701052800047,-5.660996594451446E-14,-2.2506746269078324,-0.646845110070241,-2.0401323228233648,0.0,-0.0011222300308754611,0.0,437103.346736,0.0,0.0,4.06939282796,-6.63437136001,-3.63837710015
4920.0,4227897.69816,4292855.56917,3177208.32593,-3412188.77242,4964373.71099,3179676.40951,-2971.86346115,-5115.69525288,4802.08573416,4.30344824216,-6.26106195903,-4.01020393882,6759053.07579,1.38211987415,1.2027139063928033E-14,-0.12392961015407274,-5.616394241944548E-14,-2.2879087744686117,-0.6035279206508474,-1.9765402458158763,0.0,-0.0011222300308754611,0.0,438167.34937,0.0,0.0,4.30344824216,-6.26106195903,-4.01020393882
4980.0,3902566.72819,4383178.5266,3457755.03415,-3582622.46958,4646398.65725,3460368.00046,-2707.1100752,-5479.46268201,4550.76026094,4.51840334631,-5.86003784084,-4.36421601369,6759053.07579,1.38649514324,1.7901337829181794E-15,-0.12414453766661644,-5.761993113779344E-14,-2.3207618103814966,-0.5584322841649166,-1.9167092731311035,0.0,-0.0011222300308754611,0.0,439025.033058,0.0,0.0,4.51840334631,-5.86003784084,-4.36421601369
5040.0,3560314.44068,4456612.39282,3722608.21792,-3736795.91817,4307335.27534,3725354.20763,-2430.05526591,-5818.37928869,4278.7660462,4.7133506522,-5.43299178598,-4.69891882477,6759053.07579,1.39087041233,-1.0013826629027638E-14,-0.1243570514532073,-5.611099502182246E-14,-2.3495862844882307,-0.5118173564285697,-1.8602114518515993,0.0,-0.0011222300308754611,0.0,439660.966818,0.0,0.0,4.7133506522,-5.43299178598,-4.69891882477
5100.0,3202537.33366,4512965.07563,3970563.97883,-3874007.55751,3948720.39332,3973430.52753,-2141.92484436,-6130.93704072,3987.3046765,4.88745819009,-4.98171610154,-5.01289047228,6759053.07579,1.39524568142,-2.707718779662937E-14,-0.12456241983653321,-5.4601932416255534E-14,-2.374710826509189,-0.46390980836260337,-1.8066366366717288,0.0,-0.0011222300308754611,0.0,440060.467782,0.0,0.0,4.88745819009,-4.98171610154,-5.01289047228
5160.0,2830699.47928,4552106.95507,4200492.97253,-3993630.82666,3572178.03751,4203467.0658,-1843.99220974,-6415.73830514,3677.66076718,5.03997208328,-4.50809761017,-5.30478594146,6759053.07579,1.3996209505,-3.144162926815003E-14,-0.1247559405681513,-5.2141634302363684E-14,-2.396432938269896,-0.4149080425561194,-1.7555987983553427,0.0,-0.0011222300308754611,0.0,440209.871227,0.0,0.0,5.03997208328,-4.50809761017,-5.30478594146
5220.0,2446327.01825,4573970.88854,4411345.24709,-4095116.87764,3179412.64155,4414413.37799,-1537.57358784,-6671.50136565,3351.19722158,5.17021907258,-4.01411250769,-5.57334135339,6759053.07579,1.40399621959,-3.2785060624597924E-14,-0.12493296024946456,-4.775093727497514E-14,-2.4150156964773637,-0.3649863337145999,-1.706738301739518,0.0,-0.0011222300308754611,0.0,440096.796396,0.0,0.0,5.17021907258,-4.01411250769,-5.57334135339
5280.0,2051002.40476,4578552.04154,4602154.78958,-4177996.99836,2772201.93365,4605303.01821,-1224.02311939,-6897.06562669,3009.35023591,5.27760899537,-3.5018210563,-5.81737819459,6759053.07579,1.40837148868,-3.698182547941758E-14,-0.12508889363279446,-4.621329477462511E-14,-2.4306869171786194,-0.3142986960843816,-1.6597215817962119,0.0,-0.0011222300308754611,0.0,439710.403817,0.0,0.0,5.27760899537,-3.5018210563,-5.81737819459
5340.0,1646358.41437,4565907.54622,4772043.76549,-4241884.73652,2352389.5213,4775257.78059,-904.727800986,-7091.39649329,2653.6240508,5.36163721947,-2.97336207735,-6.03580753351,6759053.07579,1.41274675777,-4.358443948737645E-14,-0.12521924275210952,-4.428380469107091E-14,-2.4436397514241253,-0.26298239579687677,-1.614239225754525,0.0,-0.0011222300308754611,0.0,439041.639925,0.0,0.0,5.36163721947,-2.97336207735,-6.03580753351
5400.0,1234071.92822,4536155.98949,4920226.43591,-4286477.71557,1921877.19323,4923491.61811,-581.10228154,-7253.58991356,2285.58545013,5.42188702733,-2.43094720503,-6.22763422669,6759053.07579,1.41712202686,-4.4759938785446414E-14,-0.12531961583331852,-4.0088120174637895E-14,-2.454034008768404,-0.21116109555569482,-1.5700031384067425,0.0,-0.0011222300308754611,0.0,438083.464978,0.0,0.0,5.42188702733,-2.43094720503,-6.22763422669
5460.0,815857.50743,4489476.73228,5046012.73733,-4311559.13418,1482616.95938,5049314.2239,-254.583517252,-7382.87656815,1906.85800787,5.45803194134,-1.87685486137,-6.39196111156,6759053.07579,1.42149729594,-3.513684475049909E-14,-0.12538574593072185,-3.656357968865164E-14,-2.461997745449843,-0.1589476583204631,-1.5267432242007744,0.0,-0.0011222300308754611,0.0,436831.060472,0.0,0.0,5.45803194134,-1.87685486137,-6.39196111156
5520.0,393460.772456,4426109.06113,5148811.50896,-4316998.94089,1036602.85042,5152134.25972,73.3747107215,-7478.62568895,1519.11608399,5.46983797588,-1.31342391202,-6.52799317687,6759053.07579,1.42587256503,-2.6968182234909525E-14,-0.12541350923342093,-3.4801264211873026E-14,-2.4676288220446962,-0.10644665693635304,-1.4842038488242082,0.0,-0.0011222300308754611,0.0,435282.012521,0.0,0.0,5.46983797588,-1.31342391202,-6.52799317687
5580.0,-31348.3966214,4346351.17324,5228133.35252,-4302754.67579,585862.499869,5231462.21682,401.307411114,-7540.34848648,1124.07857116,5.45716579717,-0.743046963407,-6.63504169538,6759053.07579,1.43024783412,-1.8855312705595156E-14,-0.12539894298792967,-3.2255453337501477E-14,-2.4709962473182445,-0.05375664596703389,-1.4421402272541461,0.0,-0.0011222300308754611,0.0,433436.467923,0.0,0.0,5.45716579717,-0.743046963407,-6.63504169538
5640.0,-456782.821921,4250558.99592,5283593.10973,-4268871.97156,132448.532866,5286912.89411,727.744123606,-7567.70116342,723.50239512,5.4199727668,-0.16816326325,-6.71252829728,6759053.07579,1.43462310321,-1.3092312852986354E-14,-0.12533826297049128,-3.1539657916293605E-14,-2.4721411995216616,-9.722550903383841E-4,-1.4003148094438722,0.0,-0.0011222300308754611,0.0,431297.259978,0.0,0.0,5.4199727668,-0.16816326325,-6.71252829728
5700.0,-881045.133327,4139144.84105,5314911.94281,-4215484.70635,-321570.212899,5318207.47909,1051.21477831,-7560.48748941,319.175773169,5.35831484034,0.408748830566,-6.75998895603,6759053.07579,1.4389983723,-1.1973145304173117E-14,-0.12522788045324923,-2.9925869600718145E-14,-2.4710776627739666,0.05181383619228279,-1.3584936871751216,0.0,-0.0011222300308754611,0.0,428870.001421,0.0,0.0,5.35831484034,0.408748830566,-6.75998895603
5760.0,-1302334.99809,4012575.8955,5321919.00358,-4142814.80182,-774117.606858,5325175.21719,1370.25566403,-7518.66091023,-87.0887630624,5.27234828788,0.985179843748,-6.77707785215,6759053.07579,1.44337364138,-1.0182559039043852E-14,-0.12506441859219083,-2.853354455988708E-14,-2.467792647619281,0.10450898345440574,-1.316443018012834,0.0,-0.0011222300308754611,0.0,426163.142243,0.0,0.0,5.27234828788,0.985179843748,-6.77707785215
5820.0,-1718856.45317,3871372.54814,5304552.67748,-4051171.66017,-1223119.25713,5307754.65559,1683.4154934,-7442.3261628,-493.461571985,5.16233119929,1.55859766783,-6.76357107406,6759053.07579,1.44774891047,2.181916725916181E-15,-0.12484472817158793,-2.7469772113330464E-14,-2.462245986125175,0.15701866331822625,-1.2739254496177,0.0,-0.0011222300308754611,0.0,423187.990535,0.0,0.0,5.16233119929,1.55859766783,-6.76357107406
5880.0,-2128825.31748,3716106.55431,5262861.38889,-3940951.23457,-1666511.62342,5265994.44832,1989.26155102,-7331.74036612,-898.103322437,5.02862473314,2.12645655041,-6.71937010921,6759053.07579,1.45212417956,1.5105049366252025E-14,-0.12456590263232893,-2.7664618191084777E-14,-2.4543697103185607,0.20924450198574565,-1.2306965274082642,0.0,-0.0011222300308754611,0.0,419958.694923,0.0,0.0,5.02862473314,2.12645655041,-6.71937010921
5940.0,-2530476.65938,3547399.03901,5197003.95552,-3812634.72876,-2102251.17886,5200053.70985,2286.38590757,-7187.3135572,-1299.17261595,4.87169406533,2.68620660527,-6.64450507325,6759053.07579,1.45649944865,1.739803808075241E-14,-0.12422529230979122,-2.8110977927828747E-14,-2.4440670442929555,0.2610821872644989,-1.1865010808427487,0.0,-0.0011222300308754611,0.0,416492.187642,0.0,0.0,4.87169406533,2.68620660527,-6.64450507325
6000.0,-2922072.29331,3365918.33996,5107249.48006,-3666786.92221,-2528323.58661,5110201.90586,2573.4116808,-7009.6086407,-1694.83379346,4.69210899059,3.23530384599,-6.53913761962,6759053.07579,1.46087471774,9.789398822280301E-15,-0.1238205178041105,-2.7773922944300852E-14,-2.4312110705849475,0.3124192043780961,-1.1410696104705609,0.0,-0.0011222300308754611,0.0,412808.087759,0.0,0.0,4.69210899059,3.23530384599,-6.53913761962
6060.0,-3301908.27719,3172377.69254,4993976.76872,-3504054.11881,-2942752.85504,4996818.27048,2848.99932093,-6799.34072098,-2083.26490554,4.49054412846,3.7712207365,-6.40356346811,6759053.07579,1.46524998683,3.3002327827623896E-15,-0.12334948240744856,-2.6625606857511644E-14,-2.415643177738733,0.3631323361129834,-1.0941147447812702,0.0,-0.0011222300308754611,0.0,408928.564602,0.0,0.0,4.49054412846,3.7712207365,-6.40356346811
6120.0,-3668322.38111,2967532.75876,4857673.26754,-3325161.71827,-3343610.43351,4860390.74114,3111.8528953,-6557.375786,-2462.66582119,4.26777868438,4.29145724209,-6.23821448707,6759053.07579,1.46962525591,1.510175303258478E-15,-0.12281038350343683,-2.7630614807824144E-14,-2.3971714688450905,0.4130848708847026,-1.0453279103677204,0.0,-0.0011222300308754611,0.0,404878.162011,0.0,0.0,4.26777868438,4.29145724209,-6.23821448707
6180.0,-4019701.49553,2752179.00321,4698933.50908,-3130911.41127,-3729024.20909,4701514.4033,3360.72634414,-6284.7287138,-2831.26644658,4.02469571623,4.79355235222,-6.04366026157,6759053.07579,1.474000525,-7.214741312326755E-15,-0.1222017228647935,-2.6174410342346033E-14,-2.3755694212332346,0.46212347125243924,-0.9943764729859594,0.0,-0.0011222300308754611,0.0,400683.584632,0.0,0.0,4.02469571623,4.79355235222,-6.04366026157
6240.00000001,-4354488.94585,2527148.9197,4518457.06368,-2922178.00077,-4097187.36259,4520889.43969,3594.42967625,-5982.56057446,-3187.33502067,3.76228085798,5.27509603514,-5.82060907841,6759053.07579,1.47837579409,-1.8958091533460752E-14,-0.1215223157630695,-2.572484396871604E-14,-2.3505752533875377,0.5100746752040791,-0.9409017756637871,0.0,-0.0011222300308754611,0.0,396373.44808,0.0,0.0,3.76228085798,5.27509603514,-5.82060907841
6300.00000001,-4671191.67873,2293309.11278,4317045.99204,-2699905.85431,-4446367.04094,4319318.58037,3811.83507065,-5652.17520314,-3529.18645076,3.48162045381,5.73374157108,-5.56990825881,6759053.07579,1.48275106318,-3.17057673460087E-14,-0.12077129881547437,-2.348575358962961E-14,-2.3218926916532174,0.5567410408949324,-0.8845187404619992,0.0,-0.0011222300308754611,0.0,391977.99548,0.0,0.0,3.48162045381,5.73374157108,-5.56990825881
6360.00000001,-4968387.28395,2051557.23974,4095601.79765,-2465104.99395,-4774912.80163,4097704.05248,4011.88284749,-5295.01502332,-3855.19064664,3.18389905968,6.1672181982,-5.29254377057,6759053.07579,1.48712633227,-3.9642241946658345E-14,-0.11994813648832196,-2.1917854503633437E-14,-2.289194154031049,0.6018970136347614,-0.8248180281727289,0.0,-0.0011222300308754611,0.0,387528.783533,0.0,0.0,3.18389905968,6.1672181982,-5.29254377057
6420.00000001,-5244730.81453,1802818.81913,3855121.88067,-2218846.83276,-5081264.7836,3857044.03112,4193.58726913,-4912.65610392,-4163.7808083,2.87039627331,6.57334399256,-4.98963905461,6759053.07579,1.49150160135,-4.5340481599466516E-14,-0.11905262618326913,-1.8952433122269642E-14,-2.252127782667429,0.6452847067916787,-0.7613721674969005,0.0,-0.0011222300308754611,0.0,383058.341937,0.0,0.0,2.87039627331,6.57334399256,-4.98963905461
6480.00000001,-5498961.36682,1548043.91339,3596695.49745,-1962259.56947,-5363961.55818,3598428.59556,4356.04212998,-4506.80243876,-4453.46161809,2.54248285958,6.9500388905,-4.66245300466,6759053.07579,1.49587687044,-5.2043307448136775E-14,-0.11808490183775533,-1.4142810724356739E-14,-2.210330228757665,0.6866099639663257,-0.6937475399130256,0.0,-0.0011222300308754611,0.0,378599.810642,0.0,0.0,2.54248285958,6.9500388905,-4.66245300466
6540.00000001,-5729908.3816,1288203.69388,3321499.23295,-1696523.2551,-5621647.61349,3323035.19808,4498.42609206,-4079.27944312,-4722.81728482,2.20161614478,7.29533774966,-4.3123770451,6759053.07579,1.50025213953,-5.42167678532189E-14,-0.11704543596878324,-9.837269218709305E-15,-2.1634475191789138,0.7255393244978586,-0.6215245344985492,0.0,-0.0011222300308754611,0.0,374186.560043,0.0,0.0,2.20161614478,7.29533774966,-4.3123770451
6600.00000001,-5936497.62682,1024286.89809,3030791.99657,-1422864.54817,-5853080.42499,3032123.65605,4620.00772186,-3632.02666813,-4970.51938436,1.8493346616,7.60740333365,-3.94093125913,6759053.07579,1.50462740862,-5.862474217587095E-14,-0.11593504010680751,-6.81813016726307E-15,-2.1111664825570795,0.7616988511070907,-0.544328337263985,0.0,-0.0011222300308754611,0.0,369851.799781,0.0,0.0,1.8493346616,7.60740333365,-3.94093125913
6660.00000001,-6117756.82249,757296.189816,2725909.55538,-1142551.17782,-6057137.06573,2727030.68103,4720.15018305,-3167.08974167,-5195.33443833,1.48725203533,7.88453909477,-3.54975952895,6759053.07579,1.50900267771,-6.247235506120859E-14,-0.11475486356231071,-4.0791430406778095E-15,-2.0532586723973028,0.7946761650237044,-0.4618722808310451,0.0,-0.0011222300308754611,0.0,365628.182319,0.0,0.0,1.48725203533,7.88453909477,-3.54975952895
6720.00000001,-6272820.86867,488244.434366,2408258.62217,-856886.136842,-6232820.31019,2409163.96263,4798.31553971,-2686.61155157,-5396.13117096,1.11705011239,8.12520162091,-3.14062365992,6759053.07579,1.51337794679,-6.553630237586057E-14,-0.11350639048597065,-1.0056721592214914E-15,-1.9896369042150988,0.8240273690371872,-0.37401386181170687,0.0,-0.0011222300308754611,0.0,361547.40786,0.0,0.0,1.11705011239,8.12520162091,-3.14062365992
6780.00000001,-6400936.63819,218150.902132,2079310.51959,-567201.6293,-6379264.18691,2079995.82799,4854.06862471,-2192.82269569,-5571.88738237,0.740471342795,8.32801260524,-2.71539647313,6759053.07579,1.51775321588,-7.047035457119636E-14,-0.11219143518541841,3.407603352240292E-15,-1.9204208305059611,0.849290618026923,-0.2808198404670666,0.0,-0.0011222300308754611,0.0,357639.83744,0.0,0.0,0.740471342795,8.32801260524,-2.71539647313
6840.00000001,-6501467.29684,-51962.5851176,1740594.445,-274852.800214,-6495738.93709,1741056.50208,4887.08042931,-1688.03123164,-5721.69637647,0.359310440102,8.49177019284,-2.27605386417,6759053.07579,1.52212848497,-7.428545239458996E-14,-0.11081213568008651,8.88074205318769E-15,-1.846002298404021,0.8700076132783615,-0.18263115978046443,0.0,-0.0011222300308754611,0.0,353934.121159,0.0,0.0,0.359310440102,8.49177019284,-2.27605386417
6900.00000001,-6573896.1154,-321075.549605,1393690.36482,18788.722697,-6581655.33799,1393926.99716,4897.13097144,-1174.61176825,-5844.77288159,-0.0245946455997,8.6154595556,-1.82466584024,6759053.07579,1.52650375406,-8.15892914057068E-14,-0.10937094547983545,1.3905361779606917E-14,-1.7670947509821782,0.8857529413263726,-0.08011193790655993,0.0,-0.0011222300308754611,0.0,350456.84849,0.0,0.0,-0.0245946455997,8.6154595556,-1.82466584024
6960.00000001,-6617829.7401,-588172.777942,1040221.57054,312341.442734,-6636568.35348,1040231.66368,4884.11160299,-654.993949337,-5940.45840334,-0.409372393755,8.69826254692,-1.36338656341,6759053.07579,1.53087902315,-8.858332280741767E-14,-0.1078706235929437,2.0324191302853504E-14,-1.6847467526951019,0.8961688839083868,0.02573739177391408,0.0,-0.0011222300308754611,0.0,347232.22738,0.0,0.0,-0.409372393755,8.69826254692,-1.36338656341
7020.00000001,-6633000.89028,-852248.249004,681846.932094,604420.72862,-6660180.07678,681630.438656,4848.02671944,-131.65038945,-6008.22595132,-0.79312795814,8.73956629053,-0.894443443811,6759053.07579,1.53525429223,-9.748676160457239E-14,-0.10631422277899479,2.6740821078630543E-14,-1.6003022577459534,0.9010005952779264,0.13362018048749885,0.0,-0.0011222300308754611,0.0,344281.798482,0.0,0.0,-0.79312795814,8.73956629053,-0.894443443811
7080.00000001,-6619270.45537,-1112309.05085,320252.887974,893645.632716,-6652341.93454,319810.83046,4788.99483915,392.915870197,-6047.68408435,-1.17395391808,8.73897056345,-0.420125342437,6759053.07579,1.53962956132,-1.0122383219719974E-13,-0.10470507607668054,3.326683429247685E-14,-1.51530238754979,0.9001245624998307,0.24204214250254724,0.0,-0.0011222300308754611,0.0,341624.190274,0.0,0.0,-1.17395391808,8.73897056345,-0.420125342437
7140.00000001,-6576628.9665,-1367379.26759,-42854.7855918,1178645.75439,-6613056.12594,-43520.317251,4707.24902451,916.184309294,-6058.58022307,-1.54994145227,8.69629384202,0.0572300400458,6759053.07579,1.54400483041,-1.0053054405944204E-13,-0.10304678165381986,3.923245269115761E-14,-1.4313427302856523,0.8935634373664488,0.3494544048436992,0.0,-0.0011222300308754611,0.0,339274.920048,0.0,0.0,-1.54994145227,8.69629384202,0.0572300400458
7200.00000001,-6505197.42188,-1616503.81657,-405759.381047,1458068.1083,-6542476.27466,-406645.237271,4603.13662233,1435.63019564,-6040.80318364,-1.91919184086,8.61157789123,0.535249496955,6759053.07579,1.5483800995,-1.004074901120149E-13,-0.10134318603980587,4.419157108564814E-14,-1.3499176292320088,0.8814832650486611,0.45440956642810426,0.0,-0.0011222300308754611,0.0,337246.244864,0.0,0.0,-1.91919184086,8.61157789123,0.535249496955
7260.00000001,-6405227.44953,-1858752.21585,-766741.793528,1730583.9563,-6440907.27774,-767843.778201,4477.1183068,1948.73808135,-5994.38489244,-2.27982819195,8.48509079267,1.01153826498,6759053.07579,1.55275536859,-9.760044918706724E-14,-0.09959836581588041,5.071095073515114E-14,-1.2722884101621394,0.8641738706425068,0.5556938214381083,0.0,-0.0011222300308754611,0.0,335547.065491,0.0,0.0,-2.27982819195,8.48509079267,1.01153826498
7320.00000001,-6277100.79516,-2093222.26189,-1124089.13239,1994895.56067,-6308804.34,-1125402.02126,4329.76641488,2453.01543163,-5919.50124824,-2.63000728093,8.31732832297,1.48369446914,6759053.07579,1.55713063767,-8.683206200160056E-14,-0.09781660785678517,5.4718004061959937E-14,-1.1994025350018849,0.8420175459081493,0.6524081647875125,0.0,-0.0011222300308754611,0.0,334182.885183,0.0,0.0,-2.63000728093,8.31732832297,1.48369446914
7380.00000001,-6121328.12825,-2319043.59728,-1476103.35826,2249742.81619,-6146771.18934,-1477620.9226,4161.76257095,2946.00628503,-5816.47210613,-2.96793138451,8.10901361479,1.94932393117,6759053.07579,1.56150590676,-7.757321203885815E-14,-0.09600238822641491,5.788712731594307E-14,-1.1318714846229203,0.8154532930515758,0.7439908821253904,0.0,-0.0011222300308754611,0.0,333155.823925,0.0,0.0,-2.96793138451,8.10901361479,1.94932393117
7440.00000001,-5938547.16401,-2535381.14873,-1821109.89245,2493909.7184,-5955557.47415,-1822824.92781,3973.89460456,3425.30484063,-5685.7603656,-3.29185998737,7.86109505369,2.40605519901,6759053.07579,1.56588117585,-6.55158254428304E-14,-0.09416034985034392,6.272791797726345E-14,-1.069997409458439,0.7849432725168023,0.8301912912073944,0.0,-0.0011222300308754611,0.0,332464.687486,0.0,0.0,-3.29185998737,7.86109505369,2.40605519901
7500.00000001,-5729520.10469,-2741438.41595,-2157466.14464,2726230.62606,-5736055.35024,-2159370.50464,3767.05277274,3888.56886544,-5527.97015388,-3.60012123682,7.57474238774,2.8515546475,6759053.07579,1.57025644494,-5.402022570673446E-14,-0.09229527909403105,6.751134502667503E-14,-1.0138294291804992,0.7509457360009542,0.9110138594812524,0.0,-0.0011222300308754611,0.0,332105.08938,0.0,0.0,-3.60012123682,7.57474238774,2.8515546475
7560.00000001,-5495130.40853,-2936460.59285,-2483569.90457,2945596.27646,-5489295.27146,-2485654.53953,3542.22530571,4333.53281478,-5343.84410503,-3.89112302104,7.25134105131,3.28354149495,6759053.07579,1.57463171403,-4.601238782409882E-14,-0.09041208139575446,7.078828896016546E-14,-0.9632304375246121,0.71389603199762,0.9866518482533656,0.0,-0.0011222300308754611,0.0,332069.622602,0.0,0.0,-3.89112302104,7.25134105131,3.28354149495
7620.00000001,-5236378.90057,-3119737.5032,-2797867.54377,3150959.51387,-5216441.00438,-2800122.54401,3300.49330225,4758.02055902,-5134.25974449,-4.16336354881,6.89248472934,3.69980257778,6759053.07579,1.57900698311,-3.5443853536303E-14,-0.0885157561045488,7.339552689827381E-14,-0.9179405969246164,0.6741952431676046,1.057424306117808,0.0,-0.0011222300308754611,0.0,332348.07692,0.0,0.0,-4.16336354881,6.89248472934,3.69980257778
7680.00000001,-4954379.24433,-3290606.33439,-3098861.97419,3341340.69298,-4918783.89376,-3101276.61772,3043.0250082,5159.95761276,-4900.22499833,-4.41544131299,6.4999662141,4.09820672572,6759053.07579,1.5833822522,-2.462824586945021E-14,-0.08661137068860232,7.483197783426654E-14,-0.8776301812320846,0.6322049510440693,1.1237237614857667,0.0,-0.0011222300308754611,0.0,332927.696477,0.0,0.0,-4.41544131299,6.4999662141,4.09820672572
7740.00000001,-4650352.79914,-3448454.15392,-3385120.31213,3515832.72155,-4597736.41173,-3387683.11654,2771.06951839,5537.38276589,-4642.8728559,-4.64606432728,6.07576663071,4.47671858317,6759053.07579,1.58775752129,-3.1643784535753204E-14,-0.08470403448655191,6.005633755212848E-14,-0.8419395437457216,0.5882463486512888,1.1859768461721454,0.0,-0.0011222300308754611,0.0,333793.471664,0.0,0.0,-4.64606432728,6.07576663071,4.47671858317
7800.00000001,-4325622.89249,-3592720.19492,-3655281.19766,3673605.70908,-4254825.02944,-3657979.9759,2485.94994877,5888.45902183,-4363.45522348,-4.85405853433,5.62204313196,4.83341172857,6759053.07579,1.59213279038,-6.684237467884604E-16,-0.08279887217376626,7.74257506697695E-14,-0.8105070603463328,0.5426021077730778,1.244617010755871,0.0,-0.0011222300308754611,0.0,334928.458534,0.0,0.0,-4.85405853433,5.62204313196,4.83341172857
7860.00000001,-3981608.54173,-3722897.8987,-3908061.72246,3813911.19109,-3891682.45543,-3910883.6422,2189.05613123,6211.48375444,-4063.33601534,-5.03837529439,5.14111518454,5.16648095218,6759053.07579,1.59650805947,1.2252527627653769E-14,-0.08090099712617797,7.468472522121721E-14,-0.7829872563520442,0.49551977482420756,1.300067135042505,0.0,-0.0011222300308754611,0.0,336314.118576,0.0,0.0,-5.03837529439,5.14111518454,5.16648095218
7920.00000001,-3619817.66378,-3838536.70411,-4142263.92194,3936085.90236,-3510039.29001,-4145195.5682,1881.83688865,6504.89800344,-3743.9835367,-5.19809787646,4.63544958934,5.47425356434,6759053.07579,1.60088332855,2.7452652566509814E-14,-0.07901548486021198,7.305858046078635E-14,-0.7590615997007197,0.4472158474107046,1.3527295647998494,0.0,-0.0011222300308754611,0.0,337930.671418,0.0,0.0,-5.19809787646,4.63544958934,5.47425356434
7980.00000001,-3241839.81562,-3939243.5754,-4356780.79095,4039555.07548,-3111715.14967,-4359808.23161,1565.791952,6767.29483697,-3406.96222004,-5.33244688762,4.10764439524,5.75519961998,6759053.07579,1.60525859764,2.822811483960543E-14,-0.0771473467284049,7.12940849155793E-14,-0.7384441751096069,0.39787999655358214,1.4029813759518839,0.0,-0.0011222300308754611,0.0,339757.452934,0.0,0.0,-5.33244688762,4.10764439524,5.75519961998
8040.00000001,-2849338.51168,-4024684.2623,-4550601.78631,4123835.24536,-2698609.31915,-4553710.6402,1242.46358492,6997.42672011,-3053.92378308,-5.44078459159,3.56041188088,6.0079409607,6759053.07579,1.60963386673,3.106325000960359E-14,-0.07530150404769134,6.978097470786836E-14,-0.720883996561547,0.3476791287262537,1.4511731270662838,0.0,-0.0011222300308754611,0.0,341773.271364,0.0,0.0,-5.44078459159,3.56041188088,6.0079409607
8100.00000001,-2444043.16735,-4094584.28815,-4722817.78371,4188536.54418,-2272690.99261,-4725993.29082,913.427983241,7194.21183901,-2686.5978817,-5.52261808358,2.99656078961,6.23125899355,6759053.07579,1.61400913582,3.76270803104747E-14,-0.07348276283209786,6.437236446600503E-14,-0.70616525416958,0.29676113644666746,1.497629824997974,0.0,-0.0011222300308754611,0.0,343956.754352,0.0,0.0,-5.52261808358,2.99656078961,6.23125899355
8160.00000001,-2027740.72048,-4148729.66391,-4872625.46089,4233364.4752,-1835989.16762,-4875852.5544,580.28651887,7356.73934145,-2306.78233568,-5.57760130455,2.41897801061,6.42410114402,6759053.07579,1.61838440491,4.5914656462773655E-14,-0.07169578929320705,6.18039103053212E-14,-0.6941064035234824,0.24525828345160136,1.542653219539818,0.0,-0.0011222300308754611,0.0,346286.680231,0.0,0.0,-5.57760130455,2.41897801061,6.42410114402
8220.00000001,-1602266.98443,-4186967.328,-4999331.08408,4258121.15833,-1390582.258,-5002594.46369,244.656897676,7484.27346663,-1916.33300815,-5.60553589446,1.83060990318,6.58558594012,6759053.07579,1.62275967399,4.657672113598992E-14,-0.06994508626686814,5.77061646571205E-14,-0.6845587090083027,0.1932902280746754,1.5865248427459575,0.0,-0.0011222300308754611,0.0,348742.287508,0.0,0.0,-5.60553589446,1.83060990318,6.58558594012
